[
{"state": "S Dakota", "area_name": "The Wall Of Oz", "id": "/area/105714543/the-wall-of-oz", "latitude": "44.4578", "longitude": "-103.8589", "elevation": "44.458, -103.859\n                        <a target=\"_blank\" href=\"http://maps.google.com/maps?q=44.4578,-103.8589&amp;t=h&amp;hl=en\">Google\n                            Map</a> &amp;middot <a href=\"https://www.mountainproject.com/map/105714543/the-wall-of-oz\">Climbing Area Map</a>\n                    </td>"},
{"state": "S Dakota", "area_name": "The Top Shelf", "id": "/area/118185324/the-top-shelf", "latitude": "44.46644", "longitude": "-103.83985", "elevation": "3,973"},
{"state": "S Dakota", "area_name": "Victoria Canyon Boulders", "id": "/area/106314004/victoria-canyon-boulders", "latitude": "44.07898", "longitude": "-103.22302", "elevation": "44.079, -103.223\n                        <a target=\"_blank\" href=\"http://maps.google.com/maps?q=44.07898,-103.22302&amp;t=h&amp;hl=en\">Google\n                            Map</a> &amp;middot <a href=\"https://www.mountainproject.com/map/106314004/victoria-canyon-boulders\">Climbing Area Map</a>\n                    </td>"},
{"state": "S Dakota", "area_name": "Palmer Gulch", "id": "/area/108058478/palmer-gulch", "latitude": "43.88607", "longitude": "-103.55451", "elevation": "5,219"},
{"state": "S Dakota", "area_name": "Yellow Bird Area", "id": "/area/109019396/yellow-bird-area", "latitude": "43.86152", "longitude": "-103.54659", "elevation": "6,600"},
{"state": "S Dakota", "area_name": "Palisades State Park", "id": "/area/105874281/palisades-state-park", "latitude": "43.6901", "longitude": "-96.5147", "elevation": "1,441"},
{"state": "S Dakota", "area_name": "Devils Gulch", "id": "/area/106721638/devils-gulch", "latitude": "43.72266", "longitude": "-96.49232", "elevation": "1,519"},
{"state": "S Dakota", "area_name": "The Harbor", "id": "/area/111779456/the-harbor", "latitude": "43.85823", "longitude": "-103.53897", "elevation": "6,610"},
{"state": "S Dakota", "area_name": "Mount Rushmore National Memorial", "id": "/area/106062228/mount-rushmore-national-memorial", "latitude": "43.8813", "longitude": "-103.4624", "elevation": "5,725"},
{"state": "Wisconsin", "area_name": "Southwest side of Narrows Creek", "id": "/area/108836520/southwest-side-of-narrows-creek", "latitude": "43.47915", "longitude": "-89.95307", "elevation": "900"},
{"state": "Wisconsin", "area_name": "Northeast side of Narrows Creek", "id": "/area/108836513/northeast-side-of-narrows-creek", "latitude": "43.48024", "longitude": "-89.95236", "elevation": "900"},
{"state": "Wisconsin", "area_name": "Coprophagy Crag", "id": "/area/108133306/coprophagy-crag", "latitude": "44.5276", "longitude": "-89.5703", "elevation": "1,093"},
{"state": "Wisconsin", "area_name": "Memorial Park", "id": "/area/113457092/memorial-park", "latitude": "42.7301", "longitude": "-90.49846", "elevation": "914"},
{"state": "Wisconsin", "area_name": "Wrestling with Alligators", "id": "/area/105974912/wrestling-with-alligators", "latitude": "44.92071", "longitude": "-89.69595", "elevation": "44.921, -89.696\n                        <a target=\"_blank\" href=\"http://maps.google.com/maps?q=44.92071,-89.69595&amp;t=h&amp;hl=en\">Google\n                            Map</a> &amp;middot <a href=\"https://www.mountainproject.com/map/105974912/wrestling-with-alligators\">Climbing Area Map</a>\n                    </td>"},
{"state": "Wisconsin", "area_name": "Tower Warmup Area", "id": "/area/105976769/tower-warmup-area", "latitude": "44.92081", "longitude": "-89.69479", "elevation": "44.921, -89.695\n                        <a target=\"_blank\" href=\"http://maps.google.com/maps?q=44.92081,-89.69479&amp;t=h&amp;hl=en\">Google\n                            Map</a> &amp;middot <a href=\"https://www.mountainproject.com/map/105976769/tower-warmup-area\">Climbing Area Map</a>\n                    </td>"},
{"state": "Wisconsin", "area_name": "Star Wars Boulder", "id": "/area/105974835/star-wars-boulder", "latitude": "44.92109", "longitude": "-89.69503", "elevation": "44.921, -89.695\n                        <a target=\"_blank\" href=\"http://maps.google.com/maps?q=44.92109,-89.69503&amp;t=h&amp;hl=en\">Google\n                            Map</a> &amp;middot <a href=\"https://www.mountainproject.com/map/105974835/star-wars-boulder\">Climbing Area Map</a>\n                    </td>"},
{"state": "Wisconsin", "area_name": "Smell the Moss", "id": "/area/105975039/smell-the-moss", "latitude": "44.92179", "longitude": "-89.6978", "elevation": "44.922, -89.698\n                        <a target=\"_blank\" href=\"http://maps.google.com/maps?q=44.92179,-89.6978&amp;t=h&amp;hl=en\">Google\n                            Map</a> &amp;middot <a href=\"https://www.mountainproject.com/map/105975039/smell-the-moss\">Climbing Area Map</a>\n                    </td>"},
{"state": "Wisconsin", "area_name": "The Dyno Wall.", "id": "/area/117659257/the-dyno-wall", "latitude": "44.46519", "longitude": "-89.47269", "elevation": "1,221"},
{"state": "Wisconsin", "area_name": "Slot Climbs", "id": "/area/105974891/slot-climbs", "latitude": "44.92115", "longitude": "-89.69495", "elevation": "44.921, -89.695\n                        <a target=\"_blank\" href=\"http://maps.google.com/maps?q=44.92115,-89.69495&amp;t=h&amp;hl=en\">Google\n                            Map</a> &amp;middot <a href=\"https://www.mountainproject.com/map/105974891/slot-climbs\">Climbing Area Map</a>\n                    </td>"},
{"state": "Wisconsin", "area_name": "Ranger Station Rocks", "id": "/area/105948713/ranger-station-rocks", "latitude": "44.92031", "longitude": "-89.68384", "elevation": "1,754"},
{"state": "Wisconsin", "area_name": "Pimpin' Wall", "id": "/area/105974849/pimpin-wall", "latitude": "44.92078", "longitude": "-89.69537", "elevation": "44.921, -89.695\n                        <a target=\"_blank\" href=\"http://maps.google.com/maps?q=44.92078,-89.69537&amp;t=h&amp;hl=en\">Google\n                            Map</a> &amp;middot <a href=\"https://www.mountainproject.com/map/105974849/pimpin-wall\">Climbing Area Map</a>\n                    </td>"},
{"state": "Wisconsin", "area_name": "Paddock", "id": "/area/105977288/paddock", "latitude": "44.92081", "longitude": "-89.70178", "elevation": "44.921, -89.702\n                        <a target=\"_blank\" href=\"http://maps.google.com/maps?q=44.92081,-89.70178&amp;t=h&amp;hl=en\">Google\n                            Map</a> &amp;middot <a href=\"https://www.mountainproject.com/map/105977288/paddock\">Climbing Area Map</a>\n                    </td>"},
{"state": "Wisconsin", "area_name": "The Orb", "id": "/area/105974128/the-orb", "latitude": "44.92022", "longitude": "-89.69576", "elevation": "44.92, -89.696\n                        <a target=\"_blank\" href=\"http://maps.google.com/maps?q=44.92022,-89.69576&amp;t=h&amp;hl=en\">Google\n                            Map</a> &amp;middot <a href=\"https://www.mountainproject.com/map/105974128/the-orb\">Climbing Area Map</a>\n                    </td>"},
{"state": "Wisconsin", "area_name": "Orange Sky Overlook", "id": "/area/105974526/orange-sky-overlook", "latitude": "44.92194", "longitude": "-89.69126", "elevation": "44.922, -89.691\n                        <a target=\"_blank\" href=\"http://maps.google.com/maps?q=44.92194,-89.69126&amp;t=h&amp;hl=en\">Google\n                            Map</a> &amp;middot <a href=\"https://www.mountainproject.com/map/105974526/orange-sky-overlook\">Climbing Area Map</a>\n                    </td>"},
{"state": "Wisconsin", "area_name": "Northern Lookout Point", "id": "/area/105975008/northern-lookout-point", "latitude": "44.92216", "longitude": "-89.69702", "elevation": "44.922, -89.697\n                        <a target=\"_blank\" href=\"http://maps.google.com/maps?q=44.92216,-89.69702&amp;t=h&amp;hl=en\">Google\n                            Map</a> &amp;middot <a href=\"https://www.mountainproject.com/map/105975008/northern-lookout-point\">Climbing Area Map</a>\n                    </td>"},
{"state": "Wisconsin", "area_name": "Jurassics", "id": "/area/105974049/jurassics", "latitude": "44.92122", "longitude": "-89.69572", "elevation": "44.921, -89.696\n                        <a target=\"_blank\" href=\"http://maps.google.com/maps?q=44.92122,-89.69572&amp;t=h&amp;hl=en\">Google\n                            Map</a> &amp;middot <a href=\"https://www.mountainproject.com/map/105974049/jurassics\">Climbing Area Map</a>\n                    </td>"},
{"state": "Wisconsin", "area_name": "Headstone Area", "id": "/area/105974068/headstone-area", "latitude": "44.92044", "longitude": "-89.69516", "elevation": "44.92, -89.695\n                        <a target=\"_blank\" href=\"http://maps.google.com/maps?q=44.92044,-89.69516&amp;t=h&amp;hl=en\">Google\n                            Map</a> &amp;middot <a href=\"https://www.mountainproject.com/map/105974068/headstone-area\">Climbing Area Map</a>\n                    </td>"},
{"state": "Wisconsin", "area_name": "Emperor's Boulder", "id": "/area/105974876/emperors-boulder", "latitude": "44.92097", "longitude": "-89.69731", "elevation": "1,901"},
{"state": "Wisconsin", "area_name": "East of Consession Stand", "id": "/area/105976222/east-of-consession-stand", "latitude": "44.92092", "longitude": "-89.68885", "elevation": "44.921, -89.689\n                        <a target=\"_blank\" href=\"http://maps.google.com/maps?q=44.92092,-89.68885&amp;t=h&amp;hl=en\">Google\n                            Map</a> &amp;middot <a href=\"https://www.mountainproject.com/map/105976222/east-of-consession-stand\">Climbing Area Map</a>\n                    </td>"},
{"state": "S Dakota", "area_name": "Iron Mountain", "id": "/area/105714285/iron-mountain", "latitude": "43.8731", "longitude": "-103.4317", "elevation": "4,785"},
{"state": "S Dakota", "area_name": "Horsethief Lake Area", "id": "/area/107737897/horsethief-lake-area", "latitude": "43.8897", "longitude": "-103.483", "elevation": "5,036"},
{"state": "S Dakota", "area_name": "Grizzly Bear Creek", "id": "/area/110999024/grizzly-bear-creek", "latitude": "43.86032", "longitude": "-103.51836", "elevation": "6,191"},
{"state": "S Dakota", "area_name": "Elkhorn Peak", "id": "/area/109447382/elkhorn-peak", "latitude": "43.91226", "longitude": "-103.43519", "elevation": "43.912, -103.435\n                        <a target=\"_blank\" href=\"http://maps.google.com/maps?q=43.91226,-103.43519&amp;t=h&amp;hl=en\">Google\n                            Map</a> &amp;middot <a href=\"https://www.mountainproject.com/map/109447382/elkhorn-peak\">Climbing Area Map</a>\n                    </td>"},
{"state": "S Dakota", "area_name": "The VC", "id": "/area/106286034/the-vc", "latitude": "44.03983", "longitude": "-103.33312", "elevation": "3,566"},
{"state": "S Dakota", "area_name": "Rock Maze", "id": "/area/105714237/rock-maze", "latitude": "44.15533", "longitude": "-103.46852", "elevation": "4,536"},
{"state": "S Dakota", "area_name": "Meat Packing Plant", "id": "/area/105714291/meat-packing-plant", "latitude": "44.08571", "longitude": "-103.24234", "elevation": "3,244"},
{"state": "S Dakota", "area_name": "Little Elk Creek Ice", "id": "/area/114051840/little-elk-creek-ice", "latitude": "44.2674", "longitude": "-103.44886", "elevation": "3,855"},
{"state": "S Dakota", "area_name": "Foster Gulch Area", "id": "/area/118104021/foster-gulch-area", "latitude": "43.90583", "longitude": "-103.36516", "elevation": "4,416"},
{"state": "S Dakota", "area_name": "Falling Rock", "id": "/area/105714240/falling-rock", "latitude": "44.05384", "longitude": "-103.36295", "elevation": "4,087"},
{"state": "S Dakota", "area_name": "Experimental Forest", "id": "/area/107063159/experimental-forest", "latitude": "44.07898", "longitude": "-103.22302", "elevation": "44.079, -103.223\n                        <a target=\"_blank\" href=\"http://maps.google.com/maps?q=44.07898,-103.22302&amp;t=h&amp;hl=en\">Google\n                            Map</a> &amp;middot <a href=\"https://www.mountainproject.com/map/107063159/experimental-forest\">Climbing Area Map</a>\n                    </td>"},
{"state": "S Dakota", "area_name": "Estes Creek", "id": "/area/107554250/estes-creek", "latitude": "44.07898", "longitude": "-103.22302", "elevation": "44.079, -103.223\n                        <a target=\"_blank\" href=\"http://maps.google.com/maps?q=44.07898,-103.22302&amp;t=h&amp;hl=en\">Google\n                            Map</a> &amp;middot <a href=\"https://www.mountainproject.com/map/107554250/estes-creek\">Climbing Area Map</a>\n                    </td>"},
{"state": "S Dakota", "area_name": "Cliffs of Dune", "id": "/area/105714297/cliffs-of-dune", "latitude": "44.12118", "longitude": "-103.4268", "elevation": "44.121, -103.427\n                        <a target=\"_blank\" href=\"http://maps.google.com/maps?q=44.12118,-103.4268&amp;t=h&amp;hl=en\">Google\n                            Map</a> &amp;middot <a href=\"https://www.mountainproject.com/map/105714297/cliffs-of-dune\">Climbing Area Map</a>\n                    </td>"},
{"state": "S Dakota", "area_name": "Boxelder Forks", "id": "/area/107554292/boxelder-forks", "latitude": "44.20158", "longitude": "-103.53879", "elevation": "4,943"},
{"state": "S Dakota", "area_name": "Boxelder Butress", "id": "/area/110657990/boxelder-butress", "latitude": "44.19499", "longitude": "-103.51824", "elevation": "4,718"},
{"state": "S Dakota", "area_name": "Bone Collector", "id": "/area/106238756/bone-collector", "latitude": "44.08271", "longitude": "-103.42217", "elevation": "44.083, -103.422\n                        <a target=\"_blank\" href=\"http://maps.google.com/maps?q=44.08271,-103.42217&amp;t=h&amp;hl=en\">Google\n                            Map</a> &amp;middot <a href=\"https://www.mountainproject.com/map/106238756/bone-collector\">Climbing Area Map</a>\n                    </td>"},
{"state": "S Dakota", "area_name": "Bethlehem", "id": "/area/106866433/bethlehem", "latitude": "44.2832", "longitude": "-103.4743", "elevation": "3,883"},
{"state": "S Dakota", "area_name": "Terminator Amphitheatre", "id": "/area/105714681/terminator-amphitheatre", "latitude": "44.4578", "longitude": "-103.8589", "elevation": "44.458, -103.859\n                        <a target=\"_blank\" href=\"http://maps.google.com/maps?q=44.4578,-103.8589&amp;t=h&amp;hl=en\">Google\n                            Map</a> &amp;middot <a href=\"https://www.mountainproject.com/map/105714681/terminator-amphitheatre\">Climbing Area Map</a>\n                    </td>"},
{"state": "S Dakota", "area_name": "Sunshine", "id": "/area/105868936/sunshine", "latitude": "44.29596", "longitude": "-103.89038", "elevation": "5,708"},
{"state": "S Dakota", "area_name": "Spearfish Spire", "id": "/area/105714540/spearfish-spire", "latitude": "44.4578", "longitude": "-103.8589", "elevation": "44.458, -103.859\n                        <a target=\"_blank\" href=\"http://maps.google.com/maps?q=44.4578,-103.8589&amp;t=h&amp;hl=en\">Google\n                            Map</a> &amp;middot <a href=\"https://www.mountainproject.com/map/105714540/spearfish-spire\">Climbing Area Map</a>\n                    </td>"},
{"state": "S Dakota", "area_name": "Skeletal Remains", "id": "/area/105714456/skeletal-remains", "latitude": "44.45089", "longitude": "-103.86366", "elevation": "44.451, -103.864\n                        <a target=\"_blank\" href=\"http://maps.google.com/maps?q=44.45089,-103.86366&amp;t=h&amp;hl=en\">Google\n                            Map</a> &amp;middot <a href=\"https://www.mountainproject.com/map/105714456/skeletal-remains\">Climbing Area Map</a>\n                    </td>"},
{"state": "S Dakota", "area_name": "Shadowlands", "id": "/area/107298605/shadowlands", "latitude": "44.28338", "longitude": "-103.89865", "elevation": "5,537"},
{"state": "S Dakota", "area_name": "Roadler Boulder", "id": "/area/115399215/roadler-boulder", "latitude": "44.43771", "longitude": "-103.87595", "elevation": "4,036"},
{"state": "S Dakota", "area_name": "Oliver Twist", "id": "/area/106783683/oliver-twist", "latitude": "44.4578", "longitude": "-103.8589", "elevation": "44.458, -103.859\n                        <a target=\"_blank\" href=\"http://maps.google.com/maps?q=44.4578,-103.8589&amp;t=h&amp;hl=en\">Google\n                            Map</a> &amp;middot <a href=\"https://www.mountainproject.com/map/106783683/oliver-twist\">Climbing Area Map</a>\n                    </td>"},
{"state": "S Dakota", "area_name": "The Mohican", "id": "/area/105866143/the-mohican", "latitude": "44.33171", "longitude": "-103.9001", "elevation": "5,115"},
{"state": "S Dakota", "area_name": "Mile Marker 17", "id": "/area/117258209/mile-marker-17", "latitude": "44.41575", "longitude": "-103.8892", "elevation": "4,984"},
{"state": "S Dakota", "area_name": "The Latchstrings", "id": "/area/113751663/the-latchstrings", "latitude": "44.4578", "longitude": "-103.8589", "elevation": "3,825"},
{"state": "S Dakota", "area_name": "Ice Box", "id": "/area/105968437/ice-box", "latitude": "44.28332", "longitude": "-103.8988", "elevation": "5,536"},
{"state": "S Dakota", "area_name": "Hanna Road Crags", "id": "/area/114059659/hanna-road-crags", "latitude": "44.4578", "longitude": "-103.8589", "elevation": "3,825"},
{"state": "S Dakota", "area_name": "The Donut Shop", "id": "/area/111047448/the-donut-shop", "latitude": "44.4578", "longitude": "-103.8589", "elevation": "44.458, -103.859\n                        <a target=\"_blank\" href=\"http://maps.google.com/maps?q=44.4578,-103.8589&amp;t=h&amp;hl=en\">Google\n                            Map</a> &amp;middot <a href=\"https://www.mountainproject.com/map/111047448/the-donut-shop\">Climbing Area Map</a>\n                    </td>"},
{"state": "S Dakota", "area_name": "The Dark Side", "id": "/area/107229283/the-dark-side", "latitude": "44.29387", "longitude": "-103.87401", "elevation": "5,512"},
{"state": "S Dakota", "area_name": "The Danks", "id": "/area/107559658/the-danks", "latitude": "44.27814", "longitude": "-103.90421", "elevation": "5,880"},
{"state": "Wyoming", "area_name": "West Horn", "id": "/area/107256996/west-horn", "latitude": "43.8316", "longitude": "-110.76991", "elevation": "11,605"},
{"state": "Wyoming", "area_name": "Thor Peak", "id": "/area/117261856/thor-peak", "latitude": "43.83275", "longitude": "-110.79204", "elevation": "11,741"},
{"state": "Wyoming", "area_name": "Teewinot", "id": "/area/105843608/teewinot", "latitude": "43.74705", "longitude": "-110.78022", "elevation": "12,325"},
{"state": "Wyoming", "area_name": "Teepe Pillar", "id": "/area/105941309/teepe-pillar", "latitude": "43.73609", "longitude": "-110.80081", "elevation": "12,266"},
{"state": "Wyoming", "area_name": "Symmetry Spire", "id": "/area/106418560/symmetry-spire", "latitude": "43.77334", "longitude": "-110.76536", "elevation": "10,560"},
{"state": "Wyoming", "area_name": "String Lake boulders", "id": "/area/108406098/string-lake-boulders", "latitude": "43.01058", "longitude": "-107.88877", "elevation": "5,477"},
{"state": "Wyoming", "area_name": "South Teton", "id": "/area/105933117/south-teton", "latitude": "43.71875", "longitude": "-110.8186", "elevation": "12,514"},
{"state": "Wyoming", "area_name": "Taggart lake boulders", "id": "/area/108406143/taggart-lake-boulders", "latitude": "44.40819", "longitude": "-109.99815", "elevation": "8,161"},
{"state": "Wyoming", "area_name": "Red Sentinel", "id": "/area/106387886/red-sentinel", "latitude": "43.73407", "longitude": "-110.79444", "elevation": "11,000"},
{"state": "Wyoming", "area_name": "Nez Perce", "id": "/area/107757584/nez-perce", "latitude": "43.7193", "longitude": "-110.7976", "elevation": "11,901"},
{"state": "Wyoming", "area_name": "Mystery Boulder", "id": "/area/118958116/mystery-boulder", "latitude": "43.79767", "longitude": "-110.72943", "elevation": "6,899"},
{"state": "Wyoming", "area_name": "Mt Owen", "id": "/area/105855029/mt-owen", "latitude": "43.74701", "longitude": "-110.7973", "elevation": "12,928"},
{"state": "Wyoming", "area_name": "Mount St. John", "id": "/area/117262390/mount-st-john", "latitude": "43.78208", "longitude": "-110.77049", "elevation": "11,255"},
{"state": "Wyoming", "area_name": "Mount Moran", "id": "/area/105823389/mount-moran", "latitude": "43.835", "longitude": "-110.776", "elevation": "12,605"},
{"state": "Wyoming", "area_name": "Mount Fryxell (Peak 11270 at head of Paintbrush Canyon)", "id": "/area/112020294/mount-fryxell-peak-11270-at-head-of-paintbrush-canyon", "latitude": "43.78807", "longitude": "-110.81588", "elevation": "11,270"},
{"state": "Wyoming", "area_name": "Middle Teton", "id": "/area/105933112/middle-teton", "latitude": "43.72992", "longitude": "-110.81132", "elevation": "12,804"},
{"state": "Wyoming", "area_name": "Jenny Lake Bouldering", "id": "/area/107589334/jenny-lake-bouldering", "latitude": "43.75592", "longitude": "-110.72116", "elevation": "6,816"},
{"state": "Wyoming", "area_name": "Ice Point", "id": "/area/113427450/ice-point", "latitude": "43.76922", "longitude": "-110.76678", "elevation": "9,920"},
{"state": "Wyoming", "area_name": "Hidden Falls", "id": "/area/109718926/hidden-falls", "latitude": "43.76658", "longitude": "-110.75632", "elevation": "7,466"},
{"state": "Wyoming", "area_name": "Gros Ventre Tower", "id": "/area/114783451/gros-ventre-tower", "latitude": "43.761", "longitude": "-110.803", "elevation": "8,221"},
{"state": "Wyoming", "area_name": "Grand Teton", "id": "/area/105803123/grand-teton", "latitude": "43.74092", "longitude": "-110.80253", "elevation": "13,770"},
{"state": "Wyoming", "area_name": "Garnet Canyon Rock Climbs-Not Disappointment Peak", "id": "/area/107688636/garnet-canyon-rock-climbs-not-disappointment-peak", "latitude": "43.73465", "longitude": "-110.79607", "elevation": "10,000"},
{"state": "Wyoming", "area_name": "Fairshare Tower", "id": "/area/111935652/fairshare-tower", "latitude": "43.73509", "longitude": "-110.79554", "elevation": "11,500"},
{"state": "Wyoming", "area_name": "Enclosure", "id": "/area/106557065/enclosure", "latitude": "43.74139", "longitude": "-110.80585", "elevation": "13"},
{"state": "Wyoming", "area_name": "East Horn", "id": "/area/111994660/east-horn", "latitude": "43.83425", "longitude": "-110.76678", "elevation": "11,465"},
{"state": "Wyoming", "area_name": "Disappointment Peak", "id": "/area/105803650/disappointment-peak", "latitude": "43.73345", "longitude": "-110.79302", "elevation": "11,618"},
{"state": "Wyoming", "area_name": "Cloudveil Dome", "id": "/area/106678881/cloudveil-dome", "latitude": "43.71893", "longitude": "-110.80757", "elevation": "12,026"},
{"state": "Wyoming", "area_name": "Cleaver Peak", "id": "/area/106440381/cleaver-peak", "latitude": "43.7407", "longitude": "-110.803", "elevation": "11,055"},
{"state": "S Dakota", "area_name": "Wind Cave National Park", "id": "/area/108644625/wind-cave-national-park", "latitude": "43.57733", "longitude": "-103.48394", "elevation": "4,208"},
{"state": "S Dakota", "area_name": "Redbird Canyon", "id": "/area/111144948/redbird-canyon", "latitude": "43.83669", "longitude": "-103.98809", "elevation": "5,317"},
{"state": "S Dakota", "area_name": "Lightning Creek", "id": "/area/107580397/lightning-creek", "latitude": "43.7522", "longitude": "-103.7619", "elevation": "5,949"},
{"state": "S Dakota", "area_name": "Custer Bouldering", "id": "/area/112521533/custer-bouldering", "latitude": "43.76591", "longitude": "-103.58625", "elevation": "5,290"},
{"state": "S Dakota", "area_name": "Beecher Rock", "id": "/area/107801664/beecher-rock", "latitude": "43.68555", "longitude": "-103.58502", "elevation": "5,610"},
{"state": "S Dakota", "area_name": "Valley View Dome", "id": "/area/107795153/valley-view-dome", "latitude": "43.8436", "longitude": "-103.5628", "elevation": "43.844, -103.563\n                        <a target=\"_blank\" href=\"http://maps.google.com/maps?q=43.8436,-103.5628&amp;t=h&amp;hl=en\">Google\n                            Map</a> &amp;middot <a href=\"https://www.mountainproject.com/map/107795153/valley-view-dome\">Climbing Area Map</a>\n                    </td>"},
{"state": "Wyoming", "area_name": "Death Canyon", "id": "/area/105833814/death-canyon", "latitude": "43.654", "longitude": "-110.809", "elevation": "8,000"},
{"state": "S Dakota", "area_name": "Tenpins/Switchbacks", "id": "/area/105714264/tenpinsswitchbacks", "latitude": "43.8394", "longitude": "-103.5358", "elevation": "6,230"},
{"state": "S Dakota", "area_name": "Sylvan Lake Campgrounds", "id": "/area/114144482/sylvan-lake-campgrounds", "latitude": "43.83587", "longitude": "-103.55841", "elevation": "6,151"},
{"state": "S Dakota", "area_name": "Sylvan Lake", "id": "/area/106887955/sylvan-lake", "latitude": "43.84554", "longitude": "-103.56351", "elevation": "6,000"},
{"state": "S Dakota", "area_name": "Pilgrims Progress", "id": "/area/107793932/pilgrims-progress", "latitude": "43.8436", "longitude": "-103.5628", "elevation": "43.844, -103.563\n                        <a target=\"_blank\" href=\"http://maps.google.com/maps?q=43.8436,-103.5628&amp;t=h&amp;hl=en\">Google\n                            Map</a> &amp;middot <a href=\"https://www.mountainproject.com/map/107793932/pilgrims-progress\">Climbing Area Map</a>\n                    </td>"},
{"state": "S Dakota", "area_name": "Picket Fence", "id": "/area/105714294/picket-fence", "latitude": "43.8509", "longitude": "-103.5331", "elevation": "6,671"},
{"state": "S Dakota", "area_name": "The Playhouse Boulders", "id": "/area/111528855/the-playhouse-boulders", "latitude": "43.81667", "longitude": "-103.41328", "elevation": "5,052"},
{"state": "S Dakota", "area_name": "Needles Eye Area", "id": "/area/105714255/needles-eye-area", "latitude": "43.84169", "longitude": "-103.5458", "elevation": "6,359"},
{"state": "S Dakota", "area_name": "Moonlight Ridge", "id": "/area/105991183/moonlight-ridge", "latitude": "43.84355", "longitude": "-103.54332", "elevation": "6,572"},
{"state": "In Progress", "area_name": "The Underpass", "id": "/area/115316311/the-underpass", "latitude": "38.64685", "longitude": "-90.31232", "elevation": "559"},
{"state": "S Dakota", "area_name": "Little Devils Tower Trail", "id": "/area/116715541/little-devils-tower-trail", "latitude": "43.84568", "longitude": "-103.55827", "elevation": "6,242"},
{"state": "S Dakota", "area_name": "Iron Creek", "id": "/area/118945533/iron-creek", "latitude": "43.82027", "longitude": "-103.49087", "elevation": "5,278"},
{"state": "S Dakota", "area_name": "Grace Basin", "id": "/area/111701568/grace-basin", "latitude": "43.78969", "longitude": "-103.35071", "elevation": "4,320"},
{"state": "S Dakota", "area_name": "Custer State Park Ice Climbing", "id": "/area/105714306/custer-state-park-ice-climbing", "latitude": "43.8697", "longitude": "-103.54129", "elevation": "5,980"},
{"state": "S Dakota", "area_name": "Cathedral Spires", "id": "/area/105714246/cathedral-spires", "latitude": "43.8487", "longitude": "-103.5333", "elevation": "6,584"},
{"state": "S Dakota", "area_name": "Bridalveil Area", "id": "/area/105714675/bridalveil-area", "latitude": "44.4578", "longitude": "-103.8589", "elevation": "44.458, -103.859\n                        <a target=\"_blank\" href=\"http://maps.google.com/maps?q=44.4578,-103.8589&amp;t=h&amp;hl=en\">Google\n                            Map</a> &amp;middot <a href=\"https://www.mountainproject.com/map/105714675/bridalveil-area\">Climbing Area Map</a>\n                    </td>"},
{"state": "S Dakota", "area_name": "Botany Bay a.k.a The Stadium", "id": "/area/107360742/botany-bay-aka-the-stadium", "latitude": "44.44677", "longitude": "-103.87195", "elevation": "4,017"},
{"state": "S Dakota", "area_name": "Bob's Buttress", "id": "/area/107301504/bobs-buttress", "latitude": "44.4578", "longitude": "-103.8589", "elevation": "44.458, -103.859\n                        <a target=\"_blank\" href=\"http://maps.google.com/maps?q=44.4578,-103.8589&amp;t=h&amp;hl=en\">Google\n                            Map</a> &amp;middot <a href=\"https://www.mountainproject.com/map/107301504/bobs-buttress\">Climbing Area Map</a>\n                    </td>"},
{"state": "S Dakota", "area_name": "Blue Sky", "id": "/area/105866191/blue-sky", "latitude": "44.34494", "longitude": "-103.92025", "elevation": "5,421"},
{"state": "S Dakota", "area_name": "Black Betty Wall", "id": "/area/106709495/black-betty-wall", "latitude": "44.4578", "longitude": "-103.8589", "elevation": "44.458, -103.859\n                        <a target=\"_blank\" href=\"http://maps.google.com/maps?q=44.4578,-103.8589&amp;t=h&amp;hl=en\">Google\n                            Map</a> &amp;middot <a href=\"https://www.mountainproject.com/map/106709495/black-betty-wall\">Climbing Area Map</a>\n                    </td>"},
{"state": "S Dakota", "area_name": "Big Picture Gully", "id": "/area/105864643/big-picture-gully", "latitude": "44.31726", "longitude": "-103.90147", "elevation": "5,862"},
{"state": "S Dakota", "area_name": "The Big Leblondski", "id": "/area/111920435/the-big-leblondski", "latitude": "44.31267", "longitude": "-103.89444", "elevation": "5,982"},
{"state": "S Dakota", "area_name": "A Cave of Kick Ass Community Contributions and Terminating Temptations", "id": "/area/118167742/a-cave-of-kick-ass-", "latitude": "44.45101", "longitude": "-103.86337", "elevation": "3,735"},
{"state": "S Dakota", "area_name": "11th Hour Gulch", "id": "/area/105714684/11th-hour-gulch", "latitude": "44.4578", "longitude": "-103.8589", "elevation": "44.458, -103.859\n                        <a target=\"_blank\" href=\"http://maps.google.com/maps?q=44.4578,-103.8589&amp;t=h&amp;hl=en\">Google\n                            Map</a> &amp;middot <a href=\"https://www.mountainproject.com/map/105714684/11th-hour-gulch\">Climbing Area Map</a>\n                    </td>"},
{"state": "In Progress", "area_name": "South Forty", "id": "/area/115311066/south-forty", "latitude": "38.64511", "longitude": "-90.31541", "elevation": "534"},
{"state": "In Progress", "area_name": "Lopata Plaza", "id": "/area/115318466/lopata-plaza", "latitude": "38.64932", "longitude": "-90.30682", "elevation": "536"},
{"state": "In Progress", "area_name": "Crow", "id": "/area/115311642/crow", "latitude": "38.64901", "longitude": "-90.3057", "elevation": "531"},
{"state": "In Progress", "area_name": "Clockstick", "id": "/area/115312846/clockstick", "latitude": "38.64541", "longitude": "-90.3125", "elevation": "546"},
{"state": "In Progress", "area_name": "Ritual Walls", "id": "/area/117122007/ritual-walls", "latitude": "38.79466", "longitude": "-98.79209", "elevation": "1,685"},
{"state": "In Progress", "area_name": "Vex Wall", "id": "/area/117063864/vex-wall", "latitude": "38.79466", "longitude": "-98.79209", "elevation": "1,685"},
{"state": "In Progress", "area_name": "Upper RCP", "id": "/area/118822033/upper-rcp", "latitude": "38.97942", "longitude": "-77.04471", "elevation": "174"},
{"state": "In Progress", "area_name": "Embassy Row Boulders", "id": "/area/118822135/embassy-row-boulders", "latitude": "38.91654", "longitude": "-77.05952", "elevation": "50"},
{"state": "In Progress", "area_name": "Boulder Bridge", "id": "/area/118822102/boulder-bridge", "latitude": "38.94823", "longitude": "-77.04485", "elevation": "75"},
{"state": "In Progress", "area_name": "The Mossoleum", "id": "/area/117063855/the-mossoleum", "latitude": "38.79466", "longitude": "-98.79209", "elevation": "1,685"},
{"state": "In Progress", "area_name": "Dragonspine", "id": "/area/117063875/dragonspine", "latitude": "38.79466", "longitude": "-98.79209", "elevation": "1,685"},
{"state": "In Progress", "area_name": "Harbinger Wall", "id": "/area/117122069/harbinger-wall", "latitude": "38.79466", "longitude": "-98.79209", "elevation": "1,685"},
{"state": "In Progress", "area_name": "Dragon Side", "id": "/area/117121886/dragon-side", "latitude": "38.79466", "longitude": "-98.79209", "elevation": "1,685"},
{"state": "In Progress", "area_name": "The Astral Slide", "id": "/area/117121926/the-astral-slide", "latitude": "38.79466", "longitude": "-98.79209", "elevation": "1,685"},
{"state": "In Progress", "area_name": "The Altar", "id": "/area/117121861/the-altar", "latitude": "38.79466", "longitude": "-98.79209", "elevation": "1,685"},
{"state": "New Hampshire", "area_name": "Zealand Notch Itself: Whitewall Mountain", "id": "/area/106637795/zealand-notch-itself-whitewall-mountain", "latitude": "44.1811", "longitude": "-71.485", "elevation": "2,394"},
{"state": "New Hampshire", "area_name": "Square Ledge (Pinkham Notch)", "id": "/area/105973007/square-ledge-pinkham-notch", "latitude": "44.25681", "longitude": "-71.2458", "elevation": "2,350"},
{"state": "New Hampshire", "area_name": "Owl's Head Cliff (Oliverian Notch)", "id": "/area/106495542/owls-head-cliff-oliverian-notch", "latitude": "44.0024", "longitude": "-71.9192", "elevation": "969"},
{"state": "New Hampshire", "area_name": "Welch and Dickey Area", "id": "/area/108418964/welch-and-dickey-area", "latitude": "43.90458", "longitude": "-71.5885", "elevation": "1,091"},
{"state": "New Hampshire", "area_name": "Saco Crag", "id": "/area/106390666/saco-crag", "latitude": "44.0915", "longitude": "-71.1658", "elevation": "516"},
{"state": "New Hampshire", "area_name": "Tripoli Road Crag", "id": "/area/106829771/tripoli-road-crag", "latitude": "43.9916", "longitude": "-71.6607", "elevation": "1,070"},
{"state": "New Hampshire", "area_name": "Lincoln Crag", "id": "/area/106520396/lincoln-crag", "latitude": "44.03751", "longitude": "-71.67554", "elevation": "44.038, -71.676\n                        <a target=\"_blank\" href=\"http://maps.google.com/maps?q=44.03751,-71.67554&amp;t=h&amp;hl=en\">Google\n                            Map</a> &amp;middot <a href=\"https://www.mountainproject.com/map/106520396/lincoln-crag\">Climbing Area Map</a>\n                    </td>"},
{"state": "New Hampshire", "area_name": "Indian Leap Falls", "id": "/area/108227513/indian-leap-falls", "latitude": "44.0196", "longitude": "-71.7419", "elevation": "1,043"},
{"state": "New Hampshire", "area_name": "Bryant Ledge", "id": "/area/107255045/bryant-ledge", "latitude": "43.97569", "longitude": "-71.68538", "elevation": "890"},
{"state": "New Hampshire", "area_name": "Humphrey's Ledge", "id": "/area/107856255/humphreys-ledge", "latitude": "44.08572", "longitude": "-71.16471", "elevation": "552"},
{"state": "New Hampshire", "area_name": "Cemetery Cliff", "id": "/area/110972061/cemetery-cliff", "latitude": "44.05466", "longitude": "-71.12931", "elevation": "44.055, -71.129\n                        <a target=\"_blank\" href=\"http://maps.google.com/maps?q=44.05466,-71.12931&amp;t=h&amp;hl=en\">Google\n                            Map</a> &amp;middot <a href=\"https://www.mountainproject.com/map/110972061/cemetery-cliff\">Climbing Area Map</a>\n                    </td>"},
{"state": "New Hampshire", "area_name": "Mount HogsBack", "id": "/area/106829610/mount-hogsback", "latitude": "44.0486", "longitude": "-71.9126", "elevation": "2,602"},
{"state": "New Hampshire", "area_name": "Solstice Crag", "id": "/area/118754558/solstice-crag", "latitude": "44.26723", "longitude": "-71.24311", "elevation": "2,196"},
{"state": "New Hampshire", "area_name": "Pine Mountain", "id": "/area/112004279/pine-mountain", "latitude": "44.36374", "longitude": "-71.21279", "elevation": "2,000"},
{"state": "New Hampshire", "area_name": "Mt Adams - King Ravine", "id": "/area/110936103/mt-adams-king-ravine", "latitude": "44.32849", "longitude": "-71.29162", "elevation": "3,500"},
{"state": "New Hampshire", "area_name": "Lion's Head", "id": "/area/117617105/lions-head", "latitude": "44.26412", "longitude": "-71.29185", "elevation": "5,022"},
{"state": "New Hampshire", "area_name": "Huntington Ravine", "id": "/area/110935877/huntington-ravine", "latitude": "44.27435", "longitude": "-71.2875", "elevation": "4,100"},
{"state": "New Hampshire", "area_name": "Hall's Ledge", "id": "/area/107908183/halls-ledge", "latitude": "44.20701", "longitude": "-71.23675", "elevation": "1,504"},
{"state": "New Hampshire", "area_name": "Glen Boulder", "id": "/area/107293368/glen-boulder", "latitude": "44.2379", "longitude": "-71.2745", "elevation": "3,729"},
{"state": "New Hampshire", "area_name": "Connie's Crag", "id": "/area/118937594/connies-crag", "latitude": "44.27252", "longitude": "-71.24062", "elevation": "2,227"},
{"state": "New Hampshire", "area_name": "Boott Spur Buttresses", "id": "/area/112063716/boott-spur-buttresses", "latitude": "44.25345", "longitude": "-71.2871", "elevation": "5,500"},
{"state": "New Hampshire", "area_name": "Smarts Brook Area", "id": "/area/108981069/smarts-brook-area", "latitude": "43.89219", "longitude": "-71.57442", "elevation": "898"},
{"state": "New Hampshire", "area_name": "Noon Peak", "id": "/area/107346448/noon-peak", "latitude": "43.918", "longitude": "-71.5852", "elevation": "43.918, -71.585\n                        <a target=\"_blank\" href=\"http://maps.google.com/maps?q=43.918,-71.5852&amp;t=h&amp;hl=en\">Google\n                            Map</a> &amp;middot <a href=\"https://www.mountainproject.com/map/107346448/noon-peak\">Climbing Area Map</a>\n                    </td>"},
{"state": "New Hampshire", "area_name": "Mount Osceola Trail Crags", "id": "/area/106829795/mount-osceola-trail-crags", "latitude": "43.918", "longitude": "-71.5852", "elevation": "43.918, -71.585\n                        <a target=\"_blank\" href=\"http://maps.google.com/maps?q=43.918,-71.5852&amp;t=h&amp;hl=en\">Google\n                            Map</a> &amp;middot <a href=\"https://www.mountainproject.com/map/106829795/mount-osceola-trail-crags\">Climbing Area Map</a>\n                    </td>"},
{"state": "New Hampshire", "area_name": "Mount Osceola Summit", "id": "/area/106829895/mount-osceola-summit", "latitude": "43.918", "longitude": "-71.5852", "elevation": "2,003"},
{"state": "New Hampshire", "area_name": "Greeley Ponds", "id": "/area/106477500/greeley-ponds", "latitude": "44.0121", "longitude": "-71.5033", "elevation": "2,587"},
{"state": "New Hampshire", "area_name": "Goodrich Rock Trail", "id": "/area/107554096/goodrich-rock-trail", "latitude": "43.9891", "longitude": "-71.50109", "elevation": "2,138"},
{"state": "New Hampshire", "area_name": "Dickey Notch", "id": "/area/109083819/dickey-notch", "latitude": "43.9135", "longitude": "-71.59651", "elevation": "1,283"},
{"state": "New Hampshire", "area_name": "Cone Head Ledge", "id": "/area/107346435/cone-head-ledge", "latitude": "43.9109", "longitude": "-71.6029", "elevation": "1,739"},
{"state": "New Hampshire", "area_name": "Bald Knob", "id": "/area/107346445/bald-knob", "latitude": "43.918", "longitude": "-71.5852", "elevation": "2,003"},
{"state": "New Hampshire", "area_name": "Sugarloaf", "id": "/area/111271179/sugarloaf", "latitude": "44.25391", "longitude": "-71.50496", "elevation": "1,659"},
{"state": "New Hampshire", "area_name": "Mount Oscar", "id": "/area/106202879/mount-oscar", "latitude": "44.24859", "longitude": "-71.48615", "elevation": "2,172"},
{"state": "New Hampshire", "area_name": "Kinsman West End", "id": "/area/112288475/kinsman-west-end", "latitude": "44.05407", "longitude": "-71.79397", "elevation": "1,595"},
{"state": "New Hampshire", "area_name": "Woodchuck Ledge", "id": "/area/106416720/woodchuck-ledge", "latitude": "43.99766", "longitude": "-71.2", "elevation": "1,351"},
{"state": "New Hampshire", "area_name": "Table Mountain", "id": "/area/106829340/table-mountain", "latitude": "44.03033", "longitude": "-71.26391", "elevation": "2,484"},
{"state": "New Hampshire", "area_name": "Profile Cliff", "id": "/area/106416626/profile-cliff", "latitude": "44.1769", "longitude": "-71.6874", "elevation": "2,404"},
{"state": "New Hampshire", "area_name": "Wild River Crag", "id": "/area/105973185/wild-river-crag", "latitude": "44.28703", "longitude": "-71.05746", "elevation": "1,641"},
{"state": "New Hampshire", "area_name": "Willey Slide", "id": "/area/111839994/willey-slide", "latitude": "44.18797", "longitude": "-71.4088", "elevation": "1,908"},
{"state": "New Hampshire", "area_name": "Wigglesworth Ledge (aka Linderhoff Ledge)", "id": "/area/113498852/wigglesworth-ledge-aka-linderhoff-ledge", "latitude": "44.13417", "longitude": "-71.17962", "elevation": "1,101"},
{"state": "New Hampshire", "area_name": "White Ledge", "id": "/area/107821454/white-ledge", "latitude": "43.97346", "longitude": "-71.21583", "elevation": "1,588"},
{"state": "New Hampshire", "area_name": "The Wiswall Boulders aka Thompson Farm", "id": "/area/107925351/the-wiswall-boulders-aka-thompson-farm", "latitude": "43.1077", "longitude": "-70.9553", "elevation": "71"},
{"state": "New Mexico", "area_name": "Cerro Guadalupe", "id": "/area/112101423/cerro-guadalupe", "latitude": "35.56477", "longitude": "-107.13976", "elevation": "6,649"},
{"state": "New Mexico", "area_name": "Red Rock Arroyo", "id": "/area/107519024/red-rock-arroyo", "latitude": "33.48767", "longitude": "-107.41435", "elevation": "6,322"},
{"state": "New Mexico", "area_name": "Percha Creek, Hillsboro", "id": "/area/105789954/percha-creek-hillsboro", "latitude": "32.91771", "longitude": "-107.60665", "elevation": "5,465"},
{"state": "New Mexico", "area_name": "Mud Mountain", "id": "/area/116221880/mud-mountain", "latitude": "33.15512", "longitude": "-107.30755", "elevation": "5,437"},
{"state": "New Mexico", "area_name": "Caballo Lake", "id": "/area/106527519/caballo-lake", "latitude": "32.92904", "longitude": "-107.2356", "elevation": "5,710"},
{"state": "New York", "area_name": "Southern Loop", "id": "/area/118900499/southern-loop", "latitude": "41.17666", "longitude": "-73.59944", "elevation": "433"},
{"state": "New York", "area_name": "Poison ivy wall", "id": "/area/118667250/poison-ivy-wall", "latitude": "41.37945", "longitude": "-73.95869", "elevation": "6"},
{"state": "New York", "area_name": "Spy Rock", "id": "/area/107404253/spy-rock", "latitude": "41.2386", "longitude": "-73.5967", "elevation": "41.239, -73.597\n                        <a target=\"_blank\" href=\"http://maps.google.com/maps?q=41.2386,-73.5967&amp;t=h&amp;hl=en\">Google\n                            Map</a> &amp;middot <a href=\"https://www.mountainproject.com/map/107404253/spy-rock\">Climbing Area Map</a>\n                    </td>"},
{"state": "New York", "area_name": "Raven Rocks", "id": "/area/107404263/raven-rocks", "latitude": "41.2386", "longitude": "-73.5967", "elevation": "41.239, -73.597\n                        <a target=\"_blank\" href=\"http://maps.google.com/maps?q=41.2386,-73.5967&amp;t=h&amp;hl=en\">Google\n                            Map</a> &amp;middot <a href=\"https://www.mountainproject.com/map/107404263/raven-rocks\">Climbing Area Map</a>\n                    </td>"},
{"state": "New York", "area_name": "Leatherman's Cave", "id": "/area/107404250/leathermans-cave", "latitude": "41.2386", "longitude": "-73.5967", "elevation": "41.239, -73.597\n                        <a target=\"_blank\" href=\"http://maps.google.com/maps?q=41.2386,-73.5967&amp;t=h&amp;hl=en\">Google\n                            Map</a> &amp;middot <a href=\"https://www.mountainproject.com/map/107404250/leathermans-cave\">Climbing Area Map</a>\n                    </td>"},
{"state": "New York", "area_name": "Kimberly Bridge", "id": "/area/118772928/kimberly-bridge", "latitude": "41.25896", "longitude": "-73.57679", "elevation": "394"},
{"state": "New York", "area_name": "Joe's Hill", "id": "/area/107404259/joes-hill", "latitude": "41.2386", "longitude": "-73.5967", "elevation": "41.239, -73.597\n                        <a target=\"_blank\" href=\"http://maps.google.com/maps?q=41.2386,-73.5967&amp;t=h&amp;hl=en\">Google\n                            Map</a> &amp;middot <a href=\"https://www.mountainproject.com/map/107404259/joes-hill\">Climbing Area Map</a>\n                    </td>"},
{"state": "New York", "area_name": "Eastern Loop", "id": "/area/118912370/eastern-loop", "latitude": "41.18139", "longitude": "-73.58502", "elevation": "479"},
{"state": "New York", "area_name": "Central Roundabout", "id": "/area/118900529/central-roundabout", "latitude": "41.18504", "longitude": "-73.59417", "elevation": "501"},
{"state": "New Mexico", "area_name": "Cabezon Peak", "id": "/area/111828597/cabezon-peak", "latitude": "35.59985", "longitude": "-107.09544", "elevation": "7,785"},
{"state": "New Hampshire", "area_name": "Wentworth Coolidge Boulder", "id": "/area/113905686/wentworth-coolidge-boulder", "latitude": "43.06039", "longitude": "-70.75162", "elevation": "31"},
{"state": "New Hampshire", "area_name": "Wallis Sands Cliff", "id": "/area/113906043/wallis-sands-cliff", "latitude": "43.0279", "longitude": "-70.72544", "elevation": "10"},
{"state": "New Hampshire", "area_name": "Tower Hill Pond", "id": "/area/116178017/tower-hill-pond", "latitude": "43.03354", "longitude": "-71.35728", "elevation": "346"},
{"state": "New Hampshire", "area_name": "Stonehouse Pond", "id": "/area/107723014/stonehouse-pond", "latitude": "43.1998", "longitude": "-71.0964", "elevation": "381"},
{"state": "New Hampshire", "area_name": "Stone bridge supports route 31", "id": "/area/109449030/stone-bridge-supports-route-31", "latitude": "42.78052", "longitude": "-71.80867", "elevation": "778"},
{"state": "New Hampshire", "area_name": "Simond's Rock", "id": "/area/110627834/simonds-rock", "latitude": "42.80512", "longitude": "-71.48936", "elevation": "181"},
{"state": "New Hampshire", "area_name": "Shieling State Forest", "id": "/area/109359345/shieling-state-forest", "latitude": "43.00466", "longitude": "-71.46337", "elevation": "43.005, -71.463\n                        <a target=\"_blank\" href=\"http://maps.google.com/maps?q=43.00466,-71.46337&amp;t=h&amp;hl=en\">Google\n                            Map</a> &amp;middot <a href=\"https://www.mountainproject.com/map/109359345/shieling-state-forest\">Climbing Area Map</a>\n                    </td>"},
{"state": "New Hampshire", "area_name": "Sawmill", "id": "/area/110672326/sawmill", "latitude": "43.1388", "longitude": "-70.95157", "elevation": "96"},
{"state": "New Hampshire", "area_name": "Sand Pond Bouldering", "id": "/area/117529611/sand-pond-bouldering", "latitude": "43.17779", "longitude": "-72.16389", "elevation": "1,538"},
{"state": "New Hampshire", "area_name": "Rock Rimmon State Forest", "id": "/area/117912209/rock-rimmon-state-forest", "latitude": "42.92846", "longitude": "-71.09155", "elevation": "295"},
{"state": "New Hampshire", "area_name": "Purgatory Falls", "id": "/area/113795437/purgatory-falls", "latitude": "42.85882", "longitude": "-71.69459", "elevation": "323"},
{"state": "New Hampshire", "area_name": "Rock Rimmon", "id": "/area/105977968/rock-rimmon", "latitude": "42.9986", "longitude": "-71.4869", "elevation": "348"},
{"state": "New Hampshire", "area_name": "Portsmouth", "id": "/area/110466636/portsmouth-fraggle", "latitude": "43.05219", "longitude": "-70.75081", "elevation": "43"},
{"state": "New Hampshire", "area_name": "PHS Trails", "id": "/area/113905959/phs-trails", "latitude": "43.05637", "longitude": "-70.76274", "elevation": "27"},
{"state": "New Hampshire", "area_name": "Pelham Tree Farm Boulders", "id": "/area/106847254/pelham-tree-farm-boulders", "latitude": "42.704", "longitude": "-71.3626", "elevation": "169"},
{"state": "New Hampshire", "area_name": "Palmer Bartell Forest", "id": "/area/113665256/palmer-bartell-forest", "latitude": "42.78616", "longitude": "-71.65928", "elevation": "415"},
{"state": "New Hampshire", "area_name": "Newmarket", "id": "/area/106968587/newmarket-bouldering", "latitude": "43.0788", "longitude": "-70.9363", "elevation": "23"},
{"state": "New Hampshire", "area_name": "Musquash Conservation Area", "id": "/area/114355139/musquash-conservation-area", "latitude": "42.87378", "longitude": "-71.4055", "elevation": "279"},
{"state": "New Hampshire", "area_name": "Monadnock Region", "id": "/area/118120021/monadnock-region", "latitude": "42.97022", "longitude": "-72.11448", "elevation": "1,688"},
{"state": "New Hampshire", "area_name": "Massabesic Lake / Lake Ledges", "id": "/area/108059077/massabesic-lake-lake-ledges", "latitude": "43.0056", "longitude": "-71.3619", "elevation": "342"},
{"state": "New Hampshire", "area_name": "Manchester Area Bouldering", "id": "/area/106236412/manchester-area-bouldering", "latitude": "43.0073", "longitude": "-71.4579", "elevation": "264"},
{"state": "New Hampshire", "area_name": "Lake Potanipo (aka Rock Raymond)", "id": "/area/107363470/lake-potanipo-aka-rock-raymond", "latitude": "42.7422", "longitude": "-71.6703", "elevation": "296"},
{"state": "New Hampshire", "area_name": "Hopkinton,  and Henniker", "id": "/area/111744291/hopkinton-and-henniker", "latitude": "43.19051", "longitude": "-71.78048", "elevation": "604"},
{"state": "New Hampshire", "area_name": "Haseltine Lot Bouldering", "id": "/area/107276923/haseltine-lot-bouldering", "latitude": "42.8924", "longitude": "-71.6191", "elevation": "364"},
{"state": "New Hampshire", "area_name": "Grimauld Place", "id": "/area/106679681/grimauld-place", "latitude": "43.0635", "longitude": "-71.5403", "elevation": "744"},
{"state": "New Hampshire", "area_name": "Great Rock - Sandown", "id": "/area/107885878/great-rock-sandown", "latitude": "42.9382", "longitude": "-71.1754", "elevation": "284"},
{"state": "New Hampshire", "area_name": "Granite Hill Villages", "id": "/area/112270012/granite-hill-villages", "latitude": "43.07182", "longitude": "-71.44876", "elevation": "368"},
{"state": "New Hampshire", "area_name": "Goodwill Conservation Land (AKA Richardson Pond)", "id": "/area/112255410/goodwill-conservation-land-aka-richardson-pond", "latitude": "43.21514", "longitude": "-71.02334", "elevation": "246"},
{"state": "New Hampshire", "area_name": "Gonic Trails", "id": "/area/111276902/gonic-trails", "latitude": "43.24572", "longitude": "-70.97187", "elevation": "237"},
{"state": "New Hampshire", "area_name": "Exeter Area Bouldering", "id": "/area/110824438/exeter-area-bouldering", "latitude": "42.99461", "longitude": "-70.95797", "elevation": "73"},
{"state": "New Hampshire", "area_name": "Dumplington Hill (The Dump)", "id": "/area/108181941/dumplington-hill-the-dump", "latitude": "43.0383", "longitude": "-71.2433", "elevation": "438"},
{"state": "New Hampshire", "area_name": "The Deforestation Boulders", "id": "/area/111917921/the-deforestation-boulders", "latitude": "43.0416", "longitude": "-71.20969", "elevation": "225"},
{"state": "New Hampshire", "area_name": "Deers Leap", "id": "/area/107912237/deers-leap-windham", "latitude": "42.7682", "longitude": "-71.2975", "elevation": "205"},
{"state": "New Hampshire", "area_name": "Concord Quarries DWS", "id": "/area/106497309/concord-quarries-dws", "latitude": "43.2231", "longitude": "-71.565", "elevation": "525"},
{"state": "New Hampshire", "area_name": "Clough State Park", "id": "/area/111507599/clough-state-park", "latitude": "43.09379", "longitude": "-71.65538", "elevation": "433"},
{"state": "New Hampshire", "area_name": "Breakfast Hill Boulder", "id": "/area/113906017/breakfast-hill-boulder", "latitude": "43.01163", "longitude": "-70.80749", "elevation": "76"},
{"state": "New Hampshire", "area_name": "BG's Backyard Bouldering Gym", "id": "/area/111004353/bgs-backyard-bouldering-gym", "latitude": "43.05162", "longitude": "-70.74271", "elevation": "16"},
{"state": "New Hampshire", "area_name": "Beaver Brook", "id": "/area/107950780/beaver-brook", "latitude": "42.7333", "longitude": "-71.6216", "elevation": "354"},
{"state": "New Hampshire", "area_name": "Mt Chocorua (All Summit Areas)", "id": "/area/114446868/mt-chocorua-all-summit-areas", "latitude": "43.9542", "longitude": "-71.27344", "elevation": "3,457"},
{"state": "New Hampshire", "area_name": "Carter Ledge", "id": "/area/107839436/carter-ledge", "latitude": "43.95893", "longitude": "-71.25396", "elevation": "1,970"},
{"state": "New Hampshire", "area_name": "Band M (Re-opened)", "id": "/area/106185604/band-m-re-opened", "latitude": "43.95124", "longitude": "-71.16883", "elevation": "885"},
{"state": "New Hampshire", "area_name": "Albany Slabs", "id": "/area/106185864/albany-slabs", "latitude": "43.96308", "longitude": "-71.15908", "elevation": "820"},
{"state": "New Hampshire", "area_name": "White's Ledge", "id": "/area/106492815/whites-ledge", "latitude": "44.09467", "longitude": "-71.22605", "elevation": "1,060"},
{"state": "New Hampshire", "area_name": "Stairs Mountain", "id": "/area/108300262/stairs-mountain", "latitude": "44.1533", "longitude": "-71.3172", "elevation": "3,000"},
{"state": "New Hampshire", "area_name": "Saco Spider Boulder", "id": "/area/117310486/saco-spider-boulder", "latitude": "44.07649", "longitude": "-71.33567", "elevation": "797"},
{"state": "New Hampshire", "area_name": "Pick Of The Litter Cliff", "id": "/area/107637661/pick-of-the-litter-cliff", "latitude": "44.0911", "longitude": "-71.2275", "elevation": "838"},
{"state": "New Hampshire", "area_name": "Jackson Crag", "id": "/area/112038602/jackson-crag", "latitude": "44.15882", "longitude": "-71.19674", "elevation": "1,283"},
{"state": "New Hampshire", "area_name": "Iron Mountain", "id": "/area/111647783/iron-mountain", "latitude": "44.12605", "longitude": "-71.2396", "elevation": "2,726"},
{"state": "New Hampshire", "area_name": "Eagle Mtn Cliff", "id": "/area/111889452/eagle-mtn-cliffjackson", "latitude": "44.16022", "longitude": "-71.19318", "elevation": "1,406"},
{"state": "New Hampshire", "area_name": "CMC Crag", "id": "/area/107661012/cmc-crag", "latitude": "44.0922", "longitude": "-71.2141", "elevation": "584"},
{"state": "New Hampshire", "area_name": "Cave Mountain", "id": "/area/106391539/cave-mountain", "latitude": "44.09297", "longitude": "-71.28787", "elevation": "1,306"},
{"state": "New Hampshire", "area_name": "Attitash Crag", "id": "/area/106388831/attitash-crag", "latitude": "44.08695", "longitude": "-71.2476", "elevation": "883"},
{"state": "New Hampshire", "area_name": "Webster Slabs", "id": "/area/111064193/webster-slabs", "latitude": "44.1892", "longitude": "-71.39353", "elevation": "2,191"},
{"state": "New Hampshire", "area_name": "Webster Mountain Dome", "id": "/area/108242014/webster-mountain-dome", "latitude": "44.1962", "longitude": "-71.3925", "elevation": "3,455"},
{"state": "New Hampshire", "area_name": "Unsorted Crawford Notch Routes", "id": "/area/110931728/unsorted-crawford-notch-routes", "latitude": "44.19698", "longitude": "-71.40672", "elevation": "1,438"},
{"state": "New Hampshire", "area_name": "Trestle Cliff", "id": "/area/111839978/trestle-cliff", "latitude": "44.20911", "longitude": "-71.40639", "elevation": "1,952"},
{"state": "New Hampshire", "area_name": "Mt. Willard", "id": "/area/106006303/mt-willard", "latitude": "44.2123", "longitude": "-71.4046", "elevation": "800"},
{"state": "New Hampshire", "area_name": "The Great Cut", "id": "/area/111839925/the-great-cut", "latitude": "44.21204", "longitude": "-71.40598", "elevation": "1,901"},
{"state": "New Hampshire", "area_name": "Ethan & Abel Slabs", "id": "/area/111840445/ethan-abel-slabs", "latitude": "44.1485", "longitude": "-71.36467", "elevation": "1,177"},
{"state": "New Hampshire", "area_name": "Elephant's Head", "id": "/area/105965961/elephants-head", "latitude": "44.2136", "longitude": "-71.4065", "elevation": "2,200"},
{"state": "New Hampshire", "area_name": "Dismal Pool", "id": "/area/111840007/dismal-pool", "latitude": "44.20993", "longitude": "-71.40512", "elevation": "1,762"},
{"state": "New Hampshire", "area_name": "Crawford Notch Bouldering", "id": "/area/106674945/crawford-notch-bouldering", "latitude": "44.1823", "longitude": "-71.3991", "elevation": "1,330"},
{"state": "New Hampshire", "area_name": "Crawford Cliff", "id": "/area/111083354/crawford-cliff", "latitude": "44.22361", "longitude": "-71.40518", "elevation": "2,200"},
{"state": "New Hampshire", "area_name": "Bugle Cliff", "id": "/area/111839896/bugle-cliff", "latitude": "44.21211", "longitude": "-71.40208", "elevation": "2,379"},
{"state": "New Hampshire", "area_name": "Arethusa Falls", "id": "/area/111840078/arethusa-falls", "latitude": "44.1466", "longitude": "-71.39245", "elevation": "2,086"},
{"state": "New Hampshire", "area_name": "Shell Pond Crags (in Maine, with link)", "id": "/area/112377759/shell-pond-crags-in-maine-with-link", "latitude": "44.24719", "longitude": "-70.96258", "elevation": "1,030"},
{"state": "New Hampshire", "area_name": "Laughing Lion", "id": "/area/115187801/laughing-lion", "latitude": "44.30154", "longitude": "-71.00687", "elevation": "2,420"},
{"state": "New Hampshire", "area_name": "Mt. Liberty, Franconia Notch", "id": "/area/108333350/mt-liberty-franconia-notch", "latitude": "44.11619", "longitude": "-71.64224", "elevation": "4,426"},
{"state": "New Hampshire", "area_name": "Mt Lincoln", "id": "/area/114372605/mt-lincoln", "latitude": "44.14639", "longitude": "-71.64461", "elevation": "4,747"},
{"state": "New Hampshire", "area_name": "Sundown Ledge", "id": "/area/107756087/sundown-ledge", "latitude": "44.00669", "longitude": "-71.23158", "elevation": "1,120"},
{"state": "New Hampshire", "area_name": "Metal Walls", "id": "/area/117993930/metal-walls", "latitude": "44.14502", "longitude": "-71.68068", "elevation": "1,807"},
{"state": "New Hampshire", "area_name": "Indian Head Cliff on Mt. Pemigewasset", "id": "/area/106855968/indian-head-cliff-on-mt-pemigewasset", "latitude": "44.09683", "longitude": "-71.69832", "elevation": "2,500"},
{"state": "New Hampshire", "area_name": "Indian Head Boulders", "id": "/area/113543539/indian-head-boulders", "latitude": "44.03373", "longitude": "-71.67888", "elevation": "797"},
{"state": "New Hampshire", "area_name": "Hounds Hump Ridge (Eaglet etc)", "id": "/area/105999212/hounds-hump-ridge-eaglet-etc", "latitude": "44.1704", "longitude": "-71.6789", "elevation": "2,421"},
{"state": "New Hampshire", "area_name": "Garfield Crag", "id": "/area/106497457/garfield-crag", "latitude": "44.174", "longitude": "-71.6079", "elevation": "3,031"},
{"state": "New Hampshire", "area_name": "Franconia Notch Bouldering", "id": "/area/108349038/franconia-notch-bouldering", "latitude": "44.09538", "longitude": "-71.73552", "elevation": "2,442"},
{"state": "New Hampshire", "area_name": "Artist's Bluff Boulder", "id": "/area/109239894/artists-bluff-boulder", "latitude": "44.18078", "longitude": "-71.69517", "elevation": "2,167"},
{"state": "New Hampshire", "area_name": "Artist's Bluff", "id": "/area/106029008/artists-bluff", "latitude": "44.1803", "longitude": "-71.6952", "elevation": "2,072"},
{"state": "New Hampshire", "area_name": "Echo Crag", "id": "/area/105947922/echo-crag", "latitude": "44.1777", "longitude": "-71.6891", "elevation": "2,210"},
{"state": "New Hampshire", "area_name": "Owl's Cliff", "id": "/area/106752126/owls-cliff", "latitude": "44.0447", "longitude": "-71.3618", "elevation": "2,644"},
{"state": "New Hampshire", "area_name": "Mount Huntington", "id": "/area/106276583/mount-huntington", "latitude": "44.04144", "longitude": "-71.50654", "elevation": "2,897"},
{"state": "New Hampshire", "area_name": "Greens Cliff", "id": "/area/106755845/greens-cliff", "latitude": "44.0358", "longitude": "-71.3996", "elevation": "2,675"},
{"state": "New Hampshire", "area_name": "The Captain", "id": "/area/106171938/the-captain", "latitude": "44.0834", "longitude": "-71.462", "elevation": "3,305"},
{"state": "New Hampshire", "area_name": "Bartlett- Haystack", "id": "/area/106186769/bartlett-haystack", "latitude": "44.04757", "longitude": "-71.33676", "elevation": "2,373"},
{"state": "New Hampshire", "area_name": "Square Ledge (Mt Passaconaway)", "id": "/area/109733772/square-ledge-mt-passaconaway", "latitude": "43.95207", "longitude": "-71.36153", "elevation": "2,294"},
{"state": "New Hampshire", "area_name": "Bondcliff", "id": "/area/107894067/bondcliff", "latitude": "44.14103", "longitude": "-71.5405", "elevation": "4,265"},
{"state": "New Hampshire", "area_name": "Rainbow Slabs", "id": "/area/106158274/rainbow-slabs", "latitude": "44.0208", "longitude": "-71.2563", "elevation": "1,304"},
{"state": "New Hampshire", "area_name": "Painted Walls", "id": "/area/105896339/painted-walls", "latitude": "44.02353", "longitude": "-71.25276", "elevation": "1,628"},
{"state": "New Hampshire", "area_name": "Mt. Hedgehog  - East Ledges", "id": "/area/107883733/mt-hedgehog-east-ledges", "latitude": "43.97316", "longitude": "-71.36174", "elevation": "2,318"},
{"state": "New Hampshire", "area_name": "Lost Ledge", "id": "/area/106803777/lost-ledge", "latitude": "43.99512", "longitude": "-71.23819", "elevation": "1,389"},
{"state": "New Hampshire", "area_name": "Little Slabs by the Covered Bridge", "id": "/area/113401471/little-slabs-by-the-covered-bridge", "latitude": "44.00585", "longitude": "-71.24007", "elevation": "917"},
{"state": "New Hampshire", "area_name": "Hidden Hollow", "id": "/area/117784834/hidden-hollow", "latitude": "43.98802", "longitude": "-71.2371", "elevation": "1,677"},
{"state": "New Hampshire", "area_name": "Found Ledge", "id": "/area/107349966/found-ledge", "latitude": "43.99234", "longitude": "-71.23135", "elevation": "1,301"},
{"state": "New Hampshire", "area_name": "Crack In The Woods", "id": "/area/106180906/crack-in-the-woods", "latitude": "44.01767", "longitude": "-71.26066", "elevation": "1,437"},
{"state": "New Hampshire", "area_name": "Bear Mountain Slab", "id": "/area/106202884/bear-mountain-slab", "latitude": "44.0058", "longitude": "-71.2406", "elevation": "44.006, -71.241\n                        <a target=\"_blank\" href=\"http://maps.google.com/maps?q=44.0058,-71.2406&amp;t=h&amp;hl=en\">Google\n                            Map</a> &amp;middot <a href=\"https://www.mountainproject.com/map/106202884/bear-mountain-slab\">Climbing Area Map</a>\n                    </td>"},
{"state": "New Hampshire", "area_name": "Kinsman Cliffs", "id": "/area/112291106/kinsman-cliffs", "latitude": "44.04055", "longitude": "-71.80249", "elevation": "2,703"},
{"state": "New Hampshire", "area_name": "Lost River Crags (whole AREA)", "id": "/area/112291160/lost-river-crags-whole-area", "latitude": "44.03992", "longitude": "-71.79171", "elevation": "1,880"},
{"state": "New Hampshire", "area_name": "Kinsman Notch East (aka The Monkey Cliffs) Climbing &", "id": "/area/112291243/kinsman-notch-east-aka-the-monkey-cliffs-climbing", "latitude": "44.03483", "longitude": "-71.75807", "elevation": "1,859"},
{"state": "New York", "area_name": "Warm-up Boulder", "id": "/area/113203872/warm-up-boulder", "latitude": "42.04215", "longitude": "-78.70087", "elevation": "2,332"},
{"state": "New York", "area_name": "Horseshoe North Cliff", "id": "/area/113412906/horseshoe-north-cliff", "latitude": "42.66041", "longitude": "-74.01715", "elevation": "1,120"},
{"state": "New York", "area_name": "Up The Hill Boulder", "id": "/area/107498141/up-the-hill-boulder", "latitude": "41.2142", "longitude": "-73.8269", "elevation": "41.214, -73.827\n                        <a target=\"_blank\" href=\"http://maps.google.com/maps?q=41.2142,-73.8269&amp;t=h&amp;hl=en\">Google\n                            Map</a> &amp;middot <a href=\"https://www.mountainproject.com/map/107498141/up-the-hill-boulder\">Climbing Area Map</a>\n                    </td>"},
{"state": "New York", "area_name": "Trailside Boulders", "id": "/area/107498124/trailside-boulders", "latitude": "41.2142", "longitude": "-73.8269", "elevation": "41.214, -73.827\n                        <a target=\"_blank\" href=\"http://maps.google.com/maps?q=41.2142,-73.8269&amp;t=h&amp;hl=en\">Google\n                            Map</a> &amp;middot <a href=\"https://www.mountainproject.com/map/107498124/trailside-boulders\">Climbing Area Map</a>\n                    </td>"},
{"state": "New York", "area_name": "Power Line Boulders", "id": "/area/107522912/power-line-boulders", "latitude": "41.2142", "longitude": "-73.8269", "elevation": "41.214, -73.827\n                        <a target=\"_blank\" href=\"http://maps.google.com/maps?q=41.2142,-73.8269&amp;t=h&amp;hl=en\">Google\n                            Map</a> &amp;middot <a href=\"https://www.mountainproject.com/map/107522912/power-line-boulders\">Climbing Area Map</a>\n                    </td>"},
{"state": "New York", "area_name": "The Jumble Boulders", "id": "/area/107942572/the-jumble-boulders", "latitude": "41.2142", "longitude": "-73.8269", "elevation": "41.214, -73.827\n                        <a target=\"_blank\" href=\"http://maps.google.com/maps?q=41.2142,-73.8269&amp;t=h&amp;hl=en\">Google\n                            Map</a> &amp;middot <a href=\"https://www.mountainproject.com/map/107942572/the-jumble-boulders\">Climbing Area Map</a>\n                    </td>"},
{"state": "New York", "area_name": "Hailes Cliff South", "id": "/area/113412902/hailes-cliff-south", "latitude": "42.66227", "longitude": "-74.02047", "elevation": "1,153"},
{"state": "New York", "area_name": "Lincoln Mountain State Forest", "id": "/area/118772343/lincoln-mountain-state-forest", "latitude": "43.17319", "longitude": "-73.79683", "elevation": "879"},
{"state": "New York", "area_name": "Daniels Road State Forest", "id": "/area/118772334/daniels-road-state-forest", "latitude": "43.12064", "longitude": "-73.78797", "elevation": "530"},
{"state": "New York", "area_name": "Boulder H", "id": "/area/118562509/boulder-h", "latitude": "42.52052", "longitude": "-77.71331", "elevation": "996"},
{"state": "New York", "area_name": "Boulder G", "id": "/area/118562506/boulder-g", "latitude": "42.52052", "longitude": "-77.71331", "elevation": "996"},
{"state": "New York", "area_name": "z. . . more . . .", "id": "/area/112407598/z-more", "latitude": "41.14522", "longitude": "-74.16244", "elevation": "403"},
{"state": "New York", "area_name": "Books Tier", "id": "/area/111802946/books-tier", "latitude": "41.14603", "longitude": "-74.16547", "elevation": "685"},
{"state": "New York", "area_name": "Kittatinny", "id": "/area/112414662/kittatinny", "latitude": "41.1457", "longitude": "-74.16636", "elevation": "606"},
{"state": "New York", "area_name": "East End", "id": "/area/111437104/east-end", "latitude": "41.14607", "longitude": "-74.16321", "elevation": "515"},
{"state": "New York", "area_name": "Perched Ramparts", "id": "/area/111437877/perched-ramparts", "latitude": "41.14529", "longitude": "-74.16477", "elevation": "562"},
{"state": "New York", "area_name": "Picatinny", "id": "/area/112231895/picatinny", "latitude": "41.14565", "longitude": "-74.16685", "elevation": "552"},
{"state": "New York", "area_name": "Tower Wall area", "id": "/area/112412670/tower-wall-area", "latitude": "41.14487", "longitude": "-74.16536", "elevation": "538"},
{"state": "New York", "area_name": "Revolutionary Ramparts", "id": "/area/111435949/revolutionary-ramparts", "latitude": "41.14604", "longitude": "-74.16944", "elevation": "554"},
{"state": "New York", "area_name": "Yankee Ramparts", "id": "/area/111436006/yankee-ramparts", "latitude": "41.14674", "longitude": "-74.17066", "elevation": "533"},
{"state": "New York", "area_name": "Swamp", "id": "/area/112413480/swamp", "latitude": "41.14554", "longitude": "-74.16892", "elevation": "496"},
{"state": "New York", "area_name": "Boulder Rd crags", "id": "/area/112413447/boulder-rd-crags", "latitude": "41.14457", "longitude": "-74.16679", "elevation": "542"},
{"state": "New York", "area_name": "The Swath", "id": "/area/112413455/the-swath", "latitude": "41.14494", "longitude": "-74.16394", "elevation": "473"},
{"state": "New York", "area_name": "Rock Dojo top-rope", "id": "/area/113740060/rock-dojo-top-rope", "latitude": "41.14479", "longitude": "-74.16736", "elevation": "527"},
{"state": "New York", "area_name": "Powerlinez Bouldering", "id": "/area/112412189/powerlinez-bouldering", "latitude": "41.14453", "longitude": "-74.16395", "elevation": "436"},
{"state": "New York", "area_name": "Boulder F", "id": "/area/118562503/boulder-f", "latitude": "42.52052", "longitude": "-77.71331", "elevation": "996"},
{"state": "New York", "area_name": "Boulder E", "id": "/area/118562500/boulder-e", "latitude": "42.52052", "longitude": "-77.71331", "elevation": "996"},
{"state": "New York", "area_name": "Boulder D", "id": "/area/118562496/boulder-d", "latitude": "42.52052", "longitude": "-77.71331", "elevation": "996"},
{"state": "New York", "area_name": "Boulder C", "id": "/area/118562491/boulder-c", "latitude": "42.52052", "longitude": "-77.71331", "elevation": "996"},
{"state": "New York", "area_name": "Boulder B", "id": "/area/118562488/boulder-b", "latitude": "42.52052", "longitude": "-77.71331", "elevation": "996"},
{"state": "New York", "area_name": "Boulder A", "id": "/area/118562484/boulder-a", "latitude": "42.52052", "longitude": "-77.71331", "elevation": "996"},
{"state": "New York", "area_name": "Approach Boulder", "id": "/area/118562481/approach-boulder", "latitude": "42.52052", "longitude": "-77.71331", "elevation": "996"},
{"state": "New York", "area_name": "Split Boulder", "id": "/area/113203774/split-boulder", "latitude": "42.0415", "longitude": "-78.701", "elevation": "2,343"},
{"state": "New York", "area_name": "Morla Boulder", "id": "/area/113204014/morla-boulder", "latitude": "42.04112", "longitude": "-78.69829", "elevation": "2,334"},
{"state": "New York", "area_name": "The Trapps", "id": "/area/105798818/the-trapps", "latitude": "41.73739", "longitude": "-74.18669", "elevation": "909"},
{"state": "New York", "area_name": "Trapps Bouldering", "id": "/area/106510895/trapps-bouldering", "latitude": "41.7368", "longitude": "-74.19399", "elevation": "1,009"},
{"state": "New York", "area_name": "Sky Top", "id": "/area/105799181/sky-top", "latitude": "41.76344", "longitude": "-74.15663", "elevation": "1,369"},
{"state": "New York", "area_name": "Peterskill Bouldering", "id": "/area/107238290/peterskill-bouldering", "latitude": "41.7389", "longitude": "-74.21422", "elevation": "1,000"},
{"state": "New York", "area_name": "Peterskill", "id": "/area/105896719/peterskill", "latitude": "41.7389", "longitude": "-74.2179", "elevation": "1,122"},
{"state": "New York", "area_name": "The Near Trapps", "id": "/area/108142181/the-near-trapps", "latitude": "41.7321", "longitude": "-74.1971", "elevation": "1,078"},
{"state": "New York", "area_name": "Near Trapps Bouldering", "id": "/area/113278307/near-trapps-bouldering", "latitude": "41.73669", "longitude": "-74.18618", "elevation": "863"},
{"state": "New York", "area_name": "Times Square", "id": "/area/111843441/times-square", "latitude": "40.7589", "longitude": "-73.98512", "elevation": "48"},
{"state": "New York", "area_name": "St. Nicholas Park", "id": "/area/116499306/st-nicholas-park", "latitude": "40.81633", "longitude": "-73.94908", "elevation": "62"},
{"state": "New York", "area_name": "Slab Town", "id": "/area/108181142/slab-town", "latitude": "40.77599", "longitude": "-73.96969", "elevation": "62"},
{"state": "New York", "area_name": "Wildwood State Park", "id": "/area/116124416/wildwood-state-park", "latitude": "40.96434", "longitude": "-72.79064", "elevation": "214"},
{"state": "New York", "area_name": "Recycle Rock", "id": "/area/106243572/recycle-rock", "latitude": "43.03703", "longitude": "-74.83662", "elevation": "456"},
{"state": "New York", "area_name": "Moss Island", "id": "/area/105830357/moss-island", "latitude": "43.03907", "longitude": "-74.84845", "elevation": "373"},
{"state": "New York", "area_name": "The Dihedrals", "id": "/area/105990529/the-dihedrals", "latitude": "43.03626", "longitude": "-74.83321", "elevation": "426"},
{"state": "New York", "area_name": "Roosevelt Woods", "id": "/area/107800133/roosevelt-woods", "latitude": "41.7647", "longitude": "-73.9419", "elevation": "118"},
{"state": "New York", "area_name": "Valley Of Boulders", "id": "/area/107403951/valley-of-boulders", "latitude": "41.2346", "longitude": "-74.109", "elevation": "41.235, -74.109\n                        <a target=\"_blank\" href=\"http://maps.google.com/maps?q=41.2346,-74.109&amp;t=h&amp;hl=en\">Google\n                            Map</a> &amp;middot <a href=\"https://www.mountainproject.com/map/107403951/valley-of-boulders\">Climbing Area Map</a>\n                    </td>"},
{"state": "New York", "area_name": "The Summer Cottage", "id": "/area/107403961/the-summer-cottage", "latitude": "41.2346", "longitude": "-74.109", "elevation": "41.235, -74.109\n                        <a target=\"_blank\" href=\"http://maps.google.com/maps?q=41.2346,-74.109&amp;t=h&amp;hl=en\">Google\n                            Map</a> &amp;middot <a href=\"https://www.mountainproject.com/map/107403961/the-summer-cottage\">Climbing Area Map</a>\n                    </td>"},
{"state": "New York", "area_name": "Pine Swamp Mountain area via Long Path", "id": "/area/118790078/pine-swamp-mountain-area-via-long-path", "latitude": "41.2405", "longitude": "-74.11314", "elevation": "1,013"},
{"state": "New York", "area_name": "Minisceongo Boulders", "id": "/area/118812010/minisceongo-boulders", "latitude": "41.22825", "longitude": "-74.05812", "elevation": "789"},
{"state": "New York", "area_name": "Master Bedroom", "id": "/area/110524237/master-bedroom", "latitude": "41.19786", "longitude": "-74.16743", "elevation": "1,040"},
{"state": "New York", "area_name": "The Lemon Squeeze", "id": "/area/107403943/the-lemon-squeeze", "latitude": "41.2346", "longitude": "-74.109", "elevation": "41.235, -74.109\n                        <a target=\"_blank\" href=\"http://maps.google.com/maps?q=41.2346,-74.109&amp;t=h&amp;hl=en\">Google\n                            Map</a> &amp;middot <a href=\"https://www.mountainproject.com/map/107403943/the-lemon-squeeze\">Climbing Area Map</a>\n                    </td>"},
{"state": "New York", "area_name": "Gate Hill Boulders", "id": "/area/118812044/gate-hill-boulders", "latitude": "41.23022", "longitude": "-74.05364", "elevation": "782"},
{"state": "New York", "area_name": "Ga-Nus Quah Rocks", "id": "/area/107403866/ga-nus-quah-rocks", "latitude": "41.2346", "longitude": "-74.109", "elevation": "41.235, -74.109\n                        <a target=\"_blank\" href=\"http://maps.google.com/maps?q=41.2346,-74.109&amp;t=h&amp;hl=en\">Google\n                            Map</a> &amp;middot <a href=\"https://www.mountainproject.com/map/107403866/ga-nus-quah-rocks\">Climbing Area Map</a>\n                    </td>"},
{"state": "New York", "area_name": "Roosevelt Farm Drive", "id": "/area/107800110/roosevelt-farm-drive", "latitude": "41.7929", "longitude": "-73.932", "elevation": "41.793, -73.932\n                        <a target=\"_blank\" href=\"http://maps.google.com/maps?q=41.7929,-73.932&amp;t=h&amp;hl=en\">Google\n                            Map</a> &amp;middot <a href=\"https://www.mountainproject.com/map/107800110/roosevelt-farm-drive\">Climbing Area Map</a>\n                    </td>"},
{"state": "New York", "area_name": "Hackett Hill Park/Gorilla Rock", "id": "/area/107800068/hackett-hill-parkgorilla-rock", "latitude": "41.7929", "longitude": "-73.932", "elevation": "41.793, -73.932\n                        <a target=\"_blank\" href=\"http://maps.google.com/maps?q=41.7929,-73.932&amp;t=h&amp;hl=en\">Google\n                            Map</a> &amp;middot <a href=\"https://www.mountainproject.com/map/107800068/hackett-hill-parkgorilla-rock\">Climbing Area Map</a>\n                    </td>"},
{"state": "New York", "area_name": "Turtle Rock", "id": "/area/116124692/turtle-rock", "latitude": "40.87382", "longitude": "-72.90711", "elevation": "137"},
{"state": "New York", "area_name": "Stony Brook University Boulder", "id": "/area/116124752/stony-brook-university-boulder", "latitude": "40.90312", "longitude": "-73.11639", "elevation": "213"},
{"state": "New York", "area_name": "Split Rock", "id": "/area/112519277/split-rock", "latitude": "40.9576", "longitude": "-72.86241", "elevation": "96"},
{"state": "New York", "area_name": "South Fork", "id": "/area/118873061/south-fork", "latitude": "40.95637", "longitude": "-72.30561", "elevation": "75"},
{"state": "New York", "area_name": "Our Lady Of The Island Boulder", "id": "/area/116124706/our-lady-of-the-island-boulder", "latitude": "40.84963", "longitude": "-72.75738", "elevation": "187"},
{"state": "New York", "area_name": "East Marion Boulders", "id": "/area/109773979/east-marion-boulders", "latitude": "41.13989", "longitude": "-72.35372", "elevation": "41.14, -72.354\n                        <a target=\"_blank\" href=\"http://maps.google.com/maps?q=41.13989,-72.35372&amp;t=h&amp;hl=en\">Google\n                            Map</a> &amp;middot <a href=\"https://www.mountainproject.com/map/109773979/east-marion-boulders\">Climbing Area Map</a>\n                    </td>"},
{"state": "New York", "area_name": "Duck Pond Point Boulders", "id": "/area/116124857/duck-pond-point-boulders", "latitude": "41.03757", "longitude": "-72.52123", "elevation": "11"},
{"state": "New York", "area_name": "The Cube at Westfield Mall", "id": "/area/115966584/the-cube-at-westfield-mall", "latitude": "40.68279", "longitude": "-73.43357", "elevation": "19"},
{"state": "New York", "area_name": "Baiting Hollow Area", "id": "/area/116124721/baiting-hollow-area", "latitude": "40.96615", "longitude": "-72.76531", "elevation": "8"},
{"state": "New York", "area_name": "Riverside Park", "id": "/area/114200777/riverside-park", "latitude": "40.78166", "longitude": "-73.98713", "elevation": "30"},
{"state": "New York", "area_name": "Morningside Park", "id": "/area/113631556/morningside-park", "latitude": "40.8058", "longitude": "-73.95882", "elevation": "45"},
{"state": "New York", "area_name": "High Bridge Park", "id": "/area/116499297/high-bridge-park", "latitude": "40.83732", "longitude": "-73.9358", "elevation": "151"},
{"state": "New York", "area_name": "Fort Tryon Park", "id": "/area/110382233/fort-tryon-park", "latitude": "40.86286", "longitude": "-73.93326", "elevation": "176"},
{"state": "New York", "area_name": "Central Park", "id": "/area/106044536/central-park", "latitude": "40.7811", "longitude": "-73.9667", "elevation": "40"},
{"state": "New York", "area_name": "Astor Place Traffic Island", "id": "/area/113580715/astor-place-traffic-island", "latitude": "40.7299", "longitude": "-73.99101", "elevation": "40"},
{"state": "New York", "area_name": "232nd Street Rock", "id": "/area/107384773/232nd-street-rock", "latitude": "40.8839", "longitude": "-73.9119", "elevation": "173"},
{"state": "New York", "area_name": "Millbrook", "id": "/area/105798956/millbrook", "latitude": "41.70838", "longitude": "-74.22604", "elevation": "1,435"},
{"state": "New York", "area_name": "The Lost City", "id": "/area/116769550/the-lost-city", "latitude": "41.74447", "longitude": "-74.1972", "elevation": "703"},
{"state": "New York", "area_name": "Giants Workshop", "id": "/area/106921248/giants-workshop", "latitude": "41.736", "longitude": "-74.191", "elevation": "41.736, -74.191\n                        <a target=\"_blank\" href=\"http://maps.google.com/maps?q=41.736,-74.191&amp;t=h&amp;hl=en\">Google\n                            Map</a> &amp;middot <a href=\"https://www.mountainproject.com/map/106921248/giants-workshop\">Climbing Area Map</a>\n                    </td>"},
{"state": "Wyoming", "area_name": "Cascade Canyon", "id": "/area/105804110/cascade-canyon", "latitude": "43.7628", "longitude": "-110.746", "elevation": "6,978"},
{"state": "Wyoming", "area_name": "Buck Mt.", "id": "/area/106415512/buck-mt", "latitude": "43.68933", "longitude": "-110.81942", "elevation": "11,938"},
{"state": "Wyoming", "area_name": "Boulder Town", "id": "/area/105836670/boulder-town", "latitude": "43.7943", "longitude": "-110.718", "elevation": "6,400"},
{"state": "Wyoming", "area_name": "Boulder Island", "id": "/area/106547716/boulder-island", "latitude": "43.7991", "longitude": "-110.7276", "elevation": "6,894"},
{"state": "New York", "area_name": "The West Side", "id": "/area/111962700/the-west-side", "latitude": "44.5266", "longitude": "-75.02919", "elevation": "779"},
{"state": "New York", "area_name": "Near East", "id": "/area/114539527/near-east", "latitude": "44.52537", "longitude": "-75.02139", "elevation": "807"},
{"state": "New York", "area_name": "Far East", "id": "/area/114540134/far-east", "latitude": "44.52397", "longitude": "-75.01205", "elevation": "849"},
{"state": "Wyoming", "area_name": "Blacktail Butte", "id": "/area/105831308/blacktail-butte", "latitude": "43.6617", "longitude": "-110.698", "elevation": "6,400"},
{"state": "New York", "area_name": "Lake Gulley", "id": "/area/118584580/lake-gulley", "latitude": "42.99634", "longitude": "-76.09396", "elevation": "712"},
{"state": "New York", "area_name": "Tinker Falls", "id": "/area/109840006/tinker-falls-ice", "latitude": "42.78253", "longitude": "-76.03314", "elevation": "1,414"},
{"state": "Oklahoma", "area_name": "Parking Boulders", "id": "/area/108373557/parking-boulders", "latitude": "35.0067", "longitude": "-95.338", "elevation": "35.007, -95.338\n                        <a target=\"_blank\" href=\"http://maps.google.com/maps?q=35.0067,-95.338&amp;t=h&amp;hl=en\">Google\n                            Map</a> &amp;middot <a href=\"https://www.mountainproject.com/map/108373557/parking-boulders\">Climbing Area Map</a>\n                    </td>"},
{"state": "Oklahoma", "area_name": "Mushroom Boulder", "id": "/area/107118186/mushroom-boulder", "latitude": "35.0067", "longitude": "-95.338", "elevation": "35.007, -95.338\n                        <a target=\"_blank\" href=\"http://maps.google.com/maps?q=35.0067,-95.338&amp;t=h&amp;hl=en\">Google\n                            Map</a> &amp;middot <a href=\"https://www.mountainproject.com/map/107118186/mushroom-boulder\">Climbing Area Map</a>\n                    </td>"},
{"state": "Oklahoma", "area_name": "McAlister Elimination Boulder", "id": "/area/107118200/mcalister-elimination-boulder", "latitude": "35.0067", "longitude": "-95.338", "elevation": "35.007, -95.338\n                        <a target=\"_blank\" href=\"http://maps.google.com/maps?q=35.0067,-95.338&amp;t=h&amp;hl=en\">Google\n                            Map</a> &amp;middot <a href=\"https://www.mountainproject.com/map/107118200/mcalister-elimination-boulder\">Climbing Area Map</a>\n                    </td>"},
{"state": "Oklahoma", "area_name": "Low Angle Wall Boulder", "id": "/area/107118191/low-angle-wall-boulder", "latitude": "35.0067", "longitude": "-95.338", "elevation": "35.007, -95.338\n                        <a target=\"_blank\" href=\"http://maps.google.com/maps?q=35.0067,-95.338&amp;t=h&amp;hl=en\">Google\n                            Map</a> &amp;middot <a href=\"https://www.mountainproject.com/map/107118191/low-angle-wall-boulder\">Climbing Area Map</a>\n                    </td>"},
{"state": "Oklahoma", "area_name": "Horse Coral Face", "id": "/area/107118209/horse-coral-face", "latitude": "35.00692", "longitude": "-95.33776", "elevation": "35.007, -95.338\n                        <a target=\"_blank\" href=\"http://maps.google.com/maps?q=35.00692,-95.33776&amp;t=h&amp;hl=en\">Google\n                            Map</a> &amp;middot <a href=\"https://www.mountainproject.com/map/107118209/horse-coral-face\">Climbing Area Map</a>\n                    </td>"},
{"state": "Oklahoma", "area_name": "Fourche Maline Creek", "id": "/area/116739518/fourche-maline-creek", "latitude": "34.99633", "longitude": "-95.35113", "elevation": "823"},
{"state": "Oklahoma", "area_name": "Dwayne Johnson", "id": "/area/114066826/dwayne-johnson", "latitude": "35.0067", "longitude": "-95.33799", "elevation": "1,066"},
{"state": "Oklahoma", "area_name": "Devil's Slide", "id": "/area/108373376/devils-slide", "latitude": "35.0067", "longitude": "-95.338", "elevation": "35.007, -95.338\n                        <a target=\"_blank\" href=\"http://maps.google.com/maps?q=35.0067,-95.338&amp;t=h&amp;hl=en\">Google\n                            Map</a> &amp;middot <a href=\"https://www.mountainproject.com/map/108373376/devils-slide\">Climbing Area Map</a>\n                    </td>"},
{"state": "Oklahoma", "area_name": "Zen Pen", "id": "/area/105988507/zen-pen", "latitude": "36.13904", "longitude": "-96.40031", "elevation": "778"},
{"state": "Oklahoma", "area_name": "Shotgun", "id": "/area/109090296/shotgun", "latitude": "36.15206", "longitude": "-96.16645", "elevation": "771"},
{"state": "Oklahoma", "area_name": "Sand Springs", "id": "/area/107992873/sand-springs", "latitude": "36.14622", "longitude": "-96.15287", "elevation": "821"},
{"state": "Oklahoma", "area_name": "Osage Hills", "id": "/area/106088693/osage-hills", "latitude": "36.74163", "longitude": "-96.1815", "elevation": "36.742, -96.182\n                        <a target=\"_blank\" href=\"http://maps.google.com/maps?q=36.74163,-96.1815&amp;t=h&amp;hl=en\">Google\n                            Map</a> &amp;middot <a href=\"https://www.mountainproject.com/map/106088693/osage-hills\">Climbing Area Map</a>\n                    </td>"},
{"state": "Oklahoma", "area_name": "Chandler Park", "id": "/area/105915445/chandler-park", "latitude": "36.1311", "longitude": "-96.0758", "elevation": "879"},
{"state": "Oklahoma", "area_name": "Baby Bell", "id": "/area/112325879/baby-bell", "latitude": "36.15513", "longitude": "-96.18208", "elevation": "737"},
{"state": "Oklahoma", "area_name": "Avery Drive", "id": "/area/107286155/avery-drive", "latitude": "36.12161", "longitude": "-96.10217", "elevation": "755"},
{"state": "Oklahoma", "area_name": "Treasure Cove", "id": "/area/106652248/treasure-cove", "latitude": "34.72046", "longitude": "-98.72709", "elevation": "34.72, -98.727\n                        <a target=\"_blank\" href=\"http://maps.google.com/maps?q=34.72046,-98.72709&amp;t=h&amp;hl=en\">Google\n                            Map</a> &amp;middot <a href=\"https://www.mountainproject.com/map/106652248/treasure-cove\">Climbing Area Map</a>\n                    </td>"},
{"state": "Oklahoma", "area_name": "The Roadside Boulders", "id": "/area/108971246/the-roadside-boulders", "latitude": "34.7152", "longitude": "-98.67299", "elevation": "1,606"},
{"state": "Oklahoma", "area_name": "Parking Lot", "id": "/area/107086144/parking-lot", "latitude": "34.70985", "longitude": "-98.70912", "elevation": "1,736"},
{"state": "Oklahoma", "area_name": "The Narrows", "id": "/area/105860046/the-narrows", "latitude": "34.69733", "longitude": "-98.66959", "elevation": "1,551"},
{"state": "Oklahoma", "area_name": "Mount Scott", "id": "/area/105862428/mount-scott", "latitude": "34.7456", "longitude": "-98.53129", "elevation": "2,354"},
{"state": "Oklahoma", "area_name": "The Meadows", "id": "/area/105862422/the-meadows", "latitude": "34.70852", "longitude": "-98.64627", "elevation": "1,488"},
{"state": "Oklahoma", "area_name": "The Labyrinth", "id": "/area/106999236/the-labyrinth", "latitude": "34.7108", "longitude": "-98.6233", "elevation": "34.711, -98.623\n                        <a target=\"_blank\" href=\"http://maps.google.com/maps?q=34.7108,-98.6233&amp;t=h&amp;hl=en\">Google\n                            Map</a> &amp;middot <a href=\"https://www.mountainproject.com/map/106999236/the-labyrinth\">Climbing Area Map</a>\n                    </td>"},
{"state": "Oklahoma", "area_name": "Ice Box Crag", "id": "/area/105988275/ice-box-crag", "latitude": "34.71419", "longitude": "-98.671", "elevation": "1,548"},
{"state": "Oklahoma", "area_name": "Hunting Horse Hill", "id": "/area/118801851/hunting-horse-hill", "latitude": "34.74703", "longitude": "-98.54424", "elevation": "1,993"},
{"state": "Oklahoma", "area_name": "Forty Foot Hole", "id": "/area/112023984/forty-foot-hole", "latitude": "34.70518", "longitude": "-98.68307", "elevation": "1,436"},
{"state": "Oklahoma", "area_name": "Charon's Gardens", "id": "/area/106426609/charons-gardens", "latitude": "34.7235", "longitude": "-98.74518", "elevation": "1,837"},
{"state": "New York", "area_name": "Ludlowville Falls", "id": "/area/108775510/ludlowville-falls", "latitude": "42.55476", "longitude": "-76.53738", "elevation": "400"},
{"state": "New York", "area_name": "Stony Clove", "id": "/area/105916104/stony-clove", "latitude": "42.16398", "longitude": "-74.2017", "elevation": "2,065"},
{"state": "New York", "area_name": "Platte Clove", "id": "/area/108656767/platte-clove", "latitude": "42.1317", "longitude": "-74.08363", "elevation": "1,705"},
{"state": "New York", "area_name": "Kaaterskill Clove", "id": "/area/105911482/kaaterskill-clove", "latitude": "42.19142", "longitude": "-74.0706", "elevation": "1,433"},
{"state": "New York", "area_name": "Deep Notch", "id": "/area/106311677/deep-notch", "latitude": "42.15637", "longitude": "-74.12933", "elevation": "42.156, -74.129\n                        <a target=\"_blank\" href=\"http://maps.google.com/maps?q=42.15637,-74.12933&amp;t=h&amp;hl=en\">Google\n                            Map</a> &amp;middot <a href=\"https://www.mountainproject.com/map/106311677/deep-notch\">Climbing Area Map</a>\n                    </td>"},
{"state": "New York", "area_name": "Lick Brook Falls", "id": "/area/108751145/lick-brook-falls", "latitude": "42.39811", "longitude": "-76.5357", "elevation": "882"},
{"state": "New York", "area_name": "Old Greg Pillar", "id": "/area/112794180/old-greg-pillar", "latitude": "42.35905", "longitude": "-78.12181", "elevation": "1,278"},
{"state": "New York", "area_name": "Nuggins Pillar", "id": "/area/112776758/nuggins-pillar", "latitude": "42.35547", "longitude": "-78.12571", "elevation": "1,246"},
{"state": "New York", "area_name": "Big Scruggs Pillar", "id": "/area/112776792/big-scruggs-pillar", "latitude": "42.35639", "longitude": "-78.12491", "elevation": "1,247"},
{"state": "New York", "area_name": "Ithaca Suspension Bridge Ice Climb", "id": "/area/118846839/ithaca-suspension-bridge-ice-climb", "latitude": "42.43967", "longitude": "-76.4978", "elevation": "411"},
{"state": "New York", "area_name": "Carpenters falls NY", "id": "/area/112518184/carpenters-falls-ny", "latitude": "42.82089", "longitude": "-76.32921", "elevation": "948"},
{"state": "New York", "area_name": "Angel Falls - Ice Climb", "id": "/area/106994842/angel-falls-ice-climb", "latitude": "42.63192", "longitude": "-77.36194", "elevation": "962"},
{"state": "New York", "area_name": "Clarks Reservation Bouldering", "id": "/area/113492987/clarks-reservation-bouldering", "latitude": "42.99565", "longitude": "-76.09534", "elevation": "722"},
{"state": "Wyoming", "area_name": "Avalanche Canyon", "id": "/area/106000790/avalanche-canyon", "latitude": "43.71199", "longitude": "-110.80674", "elevation": "9,851"},
{"state": "Wyoming", "area_name": "Wild Horse Canyon", "id": "/area/117613031/wild-horse-canyon", "latitude": "41.53947", "longitude": "-109.46632", "elevation": "6,400"},
{"state": "Wyoming", "area_name": "Sugar Bowl Tower", "id": "/area/114095355/sugar-bowl-tower", "latitude": "41.54254", "longitude": "-109.47333", "elevation": "6,359"},
{"state": "Wyoming", "area_name": "Pulpit Rock", "id": "/area/113456563/pulpit-rock", "latitude": "41.51444", "longitude": "-109.40823", "elevation": "6,884"},
{"state": "Wyoming", "area_name": "God's Thumb", "id": "/area/114079737/gods-thumb", "latitude": "41.53854", "longitude": "-109.45688", "elevation": "6,571"},
{"state": "Wyoming", "area_name": "The College", "id": "/area/113605709/the-college", "latitude": "41.50531", "longitude": "-109.43859", "elevation": "6,202"},
{"state": "New Hampshire", "area_name": "The V Buttress", "id": "/area/107905006/the-v-buttress", "latitude": "44.064", "longitude": "-71.1663", "elevation": "44.064, -71.166\n                        <a target=\"_blank\" href=\"http://maps.google.com/maps?q=44.064,-71.1663&amp;t=h&amp;hl=en\">Google\n                            Map</a> &amp;middot <a href=\"https://www.mountainproject.com/map/107905006/the-v-buttress\">Climbing Area Map</a>\n                    </td>"},
{"state": "New Mexico", "area_name": "Utopian Vistas", "id": "/area/106568028/utopian-vistas", "latitude": "36.3671", "longitude": "-105.7276", "elevation": "6,300"},
{"state": "New Mexico", "area_name": "Wild and Scenic", "id": "/area/106059642/wild-and-scenic", "latitude": "36.6982", "longitude": "-105.7077", "elevation": "6,000"},
{"state": "New Mexico", "area_name": "Vista Verde Crag", "id": "/area/105898135/vista-verde-crag", "latitude": "36.342", "longitude": "-105.7394", "elevation": "6,800"},
{"state": "New Hampshire", "area_name": "Yellow Dog Wall", "id": "/area/107113363/yellow-dog-wall", "latitude": "43.1143", "longitude": "-71.1773", "elevation": "43.114, -71.177\n                        <a target=\"_blank\" href=\"http://maps.google.com/maps?q=43.1143,-71.1773&amp;t=h&amp;hl=en\">Google\n                            Map</a> &amp;middot <a href=\"https://www.mountainproject.com/map/107113363/yellow-dog-wall\">Climbing Area Map</a>\n                    </td>"},
{"state": "In Progress", "area_name": "Magill", "id": "/area/116145381/magill", "latitude": "40.0092", "longitude": "-75.30809", "elevation": "377"},
{"state": "In Progress", "area_name": "Health Center", "id": "/area/116130663/health-center", "latitude": "40.00908", "longitude": "-75.30865", "elevation": "376"},
{"state": "In Progress", "area_name": "GIAC", "id": "/area/118100056/giac", "latitude": "40.00669", "longitude": "-75.30534", "elevation": "347"},
{"state": "In Progress", "area_name": "Lily Wall", "id": "/area/112152268/lily-wall", "latitude": "42.14535", "longitude": "-90.16616", "elevation": "618"},
{"state": "In Progress", "area_name": "Paramedic's Dream Boulder", "id": "/area/111449299/paramedics-dream-boulder", "latitude": "33.11452", "longitude": "-98.59741", "elevation": "1,043"},
{"state": "In Progress", "area_name": "Fireworks Boulder", "id": "/area/111448980/fireworks-boulder", "latitude": "33.1144", "longitude": "-98.5974", "elevation": "1,039"},
{"state": "In Progress", "area_name": "Fireplace Rock", "id": "/area/111446677/fireplace-rock", "latitude": "33.11397", "longitude": "-98.59807", "elevation": "1,021"},
{"state": "In Progress", "area_name": "Burn Ban Boulder", "id": "/area/111446641/burn-ban-boulder", "latitude": "33.11454", "longitude": "-98.59761", "elevation": "1,062"},
{"state": "In Progress", "area_name": "Arson Boulder", "id": "/area/111446463/arson-boulder", "latitude": "33.11437", "longitude": "-98.59766", "elevation": "1,047"},
{"state": "In Progress", "area_name": "To Be Determined Gully", "id": "/area/117364005/to-be-determined-gully", "latitude": "35.02056", "longitude": "-116.84702", "elevation": "2,936"},
{"state": "In Progress", "area_name": "Monolith", "id": "/area/117548199/monolith", "latitude": "35.01606", "longitude": "-116.83728", "elevation": "3,192"},
{"state": "In Progress", "area_name": "Accelerant Boulder", "id": "/area/111453350/accelerant-boulder", "latitude": "33.11477", "longitude": "-98.59758", "elevation": "1,073"},
{"state": "New Mexico", "area_name": "Potato Canyon", "id": "/area/113648640/potato-canyon", "latitude": "33.88347", "longitude": "-107.47839", "elevation": "9,139"},
{"state": "New Mexico", "area_name": "The Box Climbing Areas", "id": "/area/105791039/the-box-climbing-areas", "latitude": "34.0045", "longitude": "-106.989", "elevation": "5,800"},
{"state": "In Progress", "area_name": "Bugler Pinnacle", "id": "/area/112152208/bugler-pinnacle", "latitude": "42.14543", "longitude": "-90.16621", "elevation": "620"},
{"state": "In Progress", "area_name": "Meadow Slab", "id": "/area/112152163/meadow-slab", "latitude": "42.14547", "longitude": "-90.16626", "elevation": "620"},
{"state": "In Progress", "area_name": "Chase, DC, Founders", "id": "/area/116145307/chase-dc-founders", "latitude": "40.00971", "longitude": "-75.30833", "elevation": "383"},
{"state": "In Progress", "area_name": "Campus Center", "id": "/area/116130678/campus-center", "latitude": "40.00731", "longitude": "-75.30515", "elevation": "346"},
{"state": "New Hampshire", "area_name": "Upper Cliff", "id": "/area/105929416/upper-cliff", "latitude": "43.11786", "longitude": "-71.17808", "elevation": "43.118, -71.178\n                        <a target=\"_blank\" href=\"http://maps.google.com/maps?q=43.11786,-71.17808&amp;t=h&amp;hl=en\">Google\n                            Map</a> &amp;middot <a href=\"https://www.mountainproject.com/map/105929416/upper-cliff\">Climbing Area Map</a>\n                    </td>"},
{"state": "New Hampshire", "area_name": "Trailside Boulders", "id": "/area/105945303/trailside-boulders", "latitude": "43.1143", "longitude": "-71.1773", "elevation": "43.114, -71.177\n                        <a target=\"_blank\" href=\"http://maps.google.com/maps?q=43.1143,-71.1773&amp;t=h&amp;hl=en\">Google\n                            Map</a> &amp;middot <a href=\"https://www.mountainproject.com/map/105945303/trailside-boulders\">Climbing Area Map</a>\n                    </td>"},
{"state": "New Hampshire", "area_name": "The Sherman Boulder", "id": "/area/108471942/the-sherman-boulder", "latitude": "43.11229", "longitude": "-71.17213", "elevation": "321"},
{"state": "New Hampshire", "area_name": "Round Pond", "id": "/area/105944309/round-pond", "latitude": "43.11601", "longitude": "-71.17689", "elevation": "328"},
{"state": "New Hampshire", "area_name": "Ridgeline", "id": "/area/106282288/ridgeline", "latitude": "43.1208", "longitude": "-71.1848", "elevation": "442"},
{"state": "New Hampshire", "area_name": "North Marsh Boulders (aka South Seas)", "id": "/area/106129571/north-marsh-boulders-aka-south-seas", "latitude": "43.1162", "longitude": "-71.1797", "elevation": "355"},
{"state": "New Hampshire", "area_name": "The Milestones", "id": "/area/113386832/the-milestones", "latitude": "43.11421", "longitude": "-71.17365", "elevation": "448"},
{"state": "New Hampshire", "area_name": "Microwave Area", "id": "/area/106960289/microwave-area", "latitude": "43.1215", "longitude": "-71.1932", "elevation": "895"},
{"state": "New Hampshire", "area_name": "Magic Pond", "id": "/area/106512117/magic-pond", "latitude": "43.0995", "longitude": "-71.1692", "elevation": "349"},
{"state": "New Hampshire", "area_name": "Lower Slabs", "id": "/area/105944303/lower-slabs", "latitude": "43.1178", "longitude": "-71.17772", "elevation": "43.118, -71.178\n                        <a target=\"_blank\" href=\"http://maps.google.com/maps?q=43.1178,-71.17772&amp;t=h&amp;hl=en\">Google\n                            Map</a> &amp;middot <a href=\"https://www.mountainproject.com/map/105944303/lower-slabs\">Climbing Area Map</a>\n                    </td>"},
{"state": "New Hampshire", "area_name": "Yellowknife Buttress", "id": "/area/105912590/yellowknife-buttress", "latitude": "43.80532", "longitude": "-71.84351", "elevation": "1,206"},
{"state": "New Hampshire", "area_name": "Wonderland", "id": "/area/106720266/wonderland", "latitude": "43.8021", "longitude": "-71.8367", "elevation": "43.802, -71.837\n                        <a target=\"_blank\" href=\"http://maps.google.com/maps?q=43.8021,-71.8367&amp;t=h&amp;hl=en\">Google\n                            Map</a> &amp;middot <a href=\"https://www.mountainproject.com/map/106720266/wonderland\">Climbing Area Map</a>\n                    </td>"},
{"state": "New Hampshire", "area_name": "Waimea", "id": "/area/105867832/waimea", "latitude": "43.80386", "longitude": "-71.84091", "elevation": "971"},
{"state": "New Hampshire", "area_name": "The Very Nice Crag", "id": "/area/108281340/the-very-nice-crag", "latitude": "43.80545", "longitude": "-71.84486", "elevation": "1,167"},
{"state": "New Hampshire", "area_name": "Venus Wall", "id": "/area/105877222/venus-wall", "latitude": "43.80188", "longitude": "-71.8375", "elevation": "812"},