[
{"state": "California", "area_name": "Cherry Lake", "id": "/area/111004286/cherry-lake", "latitude": "37.98547", "longitude": "-119.91681", "elevation": "4,600"},
{"state": "California", "area_name": "Belle Campground Area", "id": "/area/105720594/belle-campground-area", "latitude": "34.0034", "longitude": "-116.0189", "elevation": "3,800"},
{"state": "California", "area_name": "Barker Dam Area", "id": "/area/105720591/barker-dam-area", "latitude": "34.0307", "longitude": "-116.146", "elevation": "4,275"},
{"state": "California", "area_name": "Wonderland of Rocks", "id": "/area/110464750/wonderland-of-rocks", "latitude": "34.03843", "longitude": "-116.14483", "elevation": "4,200"},
{"state": "California", "area_name": "Joshua Tree Bouldering*", "id": "/area/106098051/joshua-tree-bouldering", "latitude": "34.01565", "longitude": "-116.16298", "elevation": "4,201"},
{"state": "California", "area_name": "Wagon Caves", "id": "/area/105737114/wagon-caves", "latitude": "36.0841", "longitude": "-121.401", "elevation": "1,522"},
{"state": "California", "area_name": "Upper Highway 108", "id": "/area/114357770/upper-highway-108", "latitude": "38.33472", "longitude": "-119.76768", "elevation": "6,147"},
{"state": "California", "area_name": "Tokopah Valley", "id": "/area/114967111/tokopah-valley", "latitude": "36.61123", "longitude": "-118.70356", "elevation": "7,151"},
{"state": "California", "area_name": "The Tramway", "id": "/area/105991060/the-tramway", "latitude": "33.81318", "longitude": "-116.63792", "elevation": "8,500"},
{"state": "California", "area_name": "Woodside Rock", "id": "/area/111268664/woodside-rock", "latitude": "37.43849", "longitude": "-122.24062", "elevation": "197"},
{"state": "California", "area_name": "South San Diego County", "id": "/area/111860940/south-san-diego-county", "latitude": "32.74169", "longitude": "-116.88568", "elevation": "618"},
{"state": "California", "area_name": "San Gorgonio Mountain", "id": "/area/107446455/san-gorgonio-mountain", "latitude": "34.0992", "longitude": "-116.8249", "elevation": "11,503"},
{"state": "California", "area_name": "Trinity Ar\u00eates", "id": "/area/105904815/trinity-aretes", "latitude": "40.77", "longitude": "-123.5033", "elevation": "4,000"},
{"state": "California", "area_name": "WhiskeyTown Dam Boulders", "id": "/area/114391864/whiskeytown-dam-boulders", "latitude": "40.59773", "longitude": "-122.53954", "elevation": "1,091"},
{"state": "California", "area_name": "Verdugo Mountains", "id": "/area/112878912/verdugo-mountains", "latitude": "34.21003", "longitude": "-118.29172", "elevation": "1,654"},
{"state": "California", "area_name": "Waishal Trail", "id": "/area/107949098/waishal-trail", "latitude": "33.56812", "longitude": "-117.24626", "elevation": "1,169"},
{"state": "California", "area_name": "Wonder Valley", "id": "/area/106792020/wonder-valley", "latitude": "34.19368", "longitude": "-115.72665", "elevation": "1,579"},
{"state": "California", "area_name": "Tehachapi Area", "id": "/area/106668977/tehachapi-area", "latitude": "35.06748", "longitude": "-118.48531", "elevation": "4,000"},
{"state": "California", "area_name": "Rim Rock", "id": "/area/106757776/rim-rock", "latitude": "34.1981", "longitude": "-116.54599", "elevation": "4,432"},
{"state": "California", "area_name": "Old Woman Statue", "id": "/area/106088113/old-woman-statue", "latitude": "34.5216", "longitude": "-115.1649", "elevation": "5,105"},
{"state": "California", "area_name": "New Jack City", "id": "/area/105865045/new-jack-city", "latitude": "34.66539", "longitude": "-116.97834", "elevation": "3,700"},
{"state": "California", "area_name": "Monastery Crags", "id": "/area/116123656/monastery-crags", "latitude": "34.5962", "longitude": "-116.99066", "elevation": "3,276"},
{"state": "California", "area_name": "Mojave National Preserve", "id": "/area/106156350/mojave-national-preserve", "latitude": "35.0121", "longitude": "-115.655", "elevation": "2,124"},
{"state": "California", "area_name": "Luna Boulders", "id": "/area/106125062/luna-boulders", "latitude": "34.35168", "longitude": "-117.11451", "elevation": "4,800"},
{"state": "California", "area_name": "Lucerne Limestone", "id": "/area/106366676/lucerne-limestone", "latitude": "34.51438", "longitude": "-116.98891", "elevation": "2,975"},
{"state": "California", "area_name": "Juniper Flats", "id": "/area/107958904/juniper-flats", "latitude": "34.34552", "longitude": "-117.23173", "elevation": "3,177"},
{"state": "California", "area_name": "Johnson Valley Areas", "id": "/area/106090659/johnson-valley-areas", "latitude": "34.3219", "longitude": "-116.5059", "elevation": "3,500"},
{"state": "California", "area_name": "Hercules Finger", "id": "/area/105882865/hercules-finger", "latitude": "34.58474", "longitude": "-116.81289", "elevation": "4,159"},
{"state": "California", "area_name": "Giant Rock", "id": "/area/106107165/giant-rock", "latitude": "34.3328", "longitude": "-116.38872", "elevation": "2,836"},
{"state": "California", "area_name": "Devil's Punchbowl", "id": "/area/106407217/devils-punchbowl", "latitude": "34.4139", "longitude": "-117.8587", "elevation": "4,740"},
{"state": "California", "area_name": "Death Valley", "id": "/area/112845124/death-valley", "latitude": "36.49667", "longitude": "-117.1142", "elevation": "5,652"},
{"state": "California", "area_name": "Coyote Hole", "id": "/area/106789701/coyote-hole", "latitude": "34.1227", "longitude": "-116.3085", "elevation": "2,908"},
{"state": "California", "area_name": "Cougar Buttes", "id": "/area/112419564/cougar-buttes", "latitude": "34.46855", "longitude": "-116.81086", "elevation": "3,000"},
{"state": "California", "area_name": "Chimney Rock (aka Rabbit Dome)", "id": "/area/107895848/chimney-rock-aka-rabbit-dome", "latitude": "34.4688", "longitude": "-117.0163", "elevation": "3,376"},
{"state": "California", "area_name": "Butt Rock Outcrop", "id": "/area/110493152/butt-rock-outcrop", "latitude": "34.35983", "longitude": "-117.09938", "elevation": "4,000"},
{"state": "California", "area_name": "Boulder Gardens", "id": "/area/117995238/boulder-gardens", "latitude": "34.21065", "longitude": "-116.55936", "elevation": "4,779"},
{"state": "California", "area_name": "Antelope Valley Indian Museum State Park", "id": "/area/118033947/antelope-valley-indian-museum-state-park", "latitude": "34.65282", "longitude": "-117.85305", "elevation": "2,847"},
{"state": "California", "area_name": "Apple Valley Crags", "id": "/area/106650855/apple-valley-crags", "latitude": "34.4901", "longitude": "-117.1244", "elevation": "3,200"},
{"state": "California", "area_name": "High Desert Bouldering", "id": "/area/107883893/high-desert-bouldering", "latitude": "35.02161", "longitude": "-117.16688", "elevation": "2,181"},
{"state": "California", "area_name": "Temecula Area", "id": "/area/107820965/temecula-area", "latitude": "33.47981", "longitude": "-117.14245", "elevation": "1,000"},
{"state": "California", "area_name": "Steele Valley", "id": "/area/107420692/steele-valley", "latitude": "33.71446", "longitude": "-117.33626", "elevation": "1,496"},
{"state": "California", "area_name": "Simpson Park", "id": "/area/109317645/simpson-park", "latitude": "33.70353", "longitude": "-116.91982", "elevation": "2,500"},
{"state": "California", "area_name": "Norco Hills", "id": "/area/118773456/norco-hills", "latitude": "33.92047", "longitude": "-117.53035", "elevation": "1,373"},
{"state": "California", "area_name": "Mount Rubidoux", "id": "/area/105924088/mount-rubidoux", "latitude": "33.984", "longitude": "-117.3917", "elevation": "1,399"},
{"state": "California", "area_name": "Riverside Quarry", "id": "/area/105902982/riverside-quarry", "latitude": "34.0169", "longitude": "-117.4166", "elevation": "1,000"},
{"state": "California", "area_name": "Lion's Den: Menifee", "id": "/area/110535521/lions-den-menifee", "latitude": "33.67623", "longitude": "-117.11733", "elevation": "1,587"},
{"state": "California", "area_name": "Juniper Flats", "id": "/area/109316989/juniper-flats", "latitude": "33.77833", "longitude": "-117.12966", "elevation": "1,600"},
{"state": "California", "area_name": "Graffiti Falls Area", "id": "/area/110843683/graffiti-falls-area", "latitude": "33.87532", "longitude": "-117.49583", "elevation": "930"},
{"state": "California", "area_name": "French Valley Hill", "id": "/area/118173966/french-valley-hill", "latitude": "33.58737", "longitude": "-117.10302", "elevation": "1,552"},
{"state": "California", "area_name": "Elephant Hill", "id": "/area/110419318/elephant-hill", "latitude": "34.0508", "longitude": "-117.79585", "elevation": "949"},
{"state": "California", "area_name": "Doty Trust Park", "id": "/area/109493017/doty-trust-park", "latitude": "33.92773", "longitude": "-117.50497", "elevation": "956"},
{"state": "California", "area_name": "Box Springs Mountain Park", "id": "/area/106100886/box-springs-mountain-park", "latitude": "33.9893", "longitude": "-117.3086", "elevation": "1,600"},
{"state": "California", "area_name": "Black Star Canyon Bouldering", "id": "/area/116213406/black-star-canyon-bouldering", "latitude": "33.78813", "longitude": "-117.66043", "elevation": "1,132"},
{"state": "California", "area_name": "Double Butte Mountain", "id": "/area/107076074/double-butte-mountain", "latitude": "33.7263", "longitude": "-117.1322", "elevation": "1,666"},
{"state": "California", "area_name": "Big Rock Area", "id": "/area/105799050/big-rock-area", "latitude": "33.84151", "longitude": "-117.16667", "elevation": "1,605"},
{"state": "California", "area_name": "Beer Me Boulders", "id": "/area/112282855/beer-me-boulders", "latitude": "33.67989", "longitude": "-117.21206", "elevation": "1,543"},
{"state": "California", "area_name": "Stoney Point", "id": "/area/105870979/stoney-point", "latitude": "34.27051", "longitude": "-118.60371", "elevation": "1,194"},
{"state": "California", "area_name": "Santa Monica Mountains", "id": "/area/105825725/santa-monica-mountains", "latitude": "34.08303", "longitude": "-118.78588", "elevation": "2,370"},
{"state": "California", "area_name": "Santa Ana Mountains", "id": "/area/105924042/santa-ana-mountains", "latitude": "33.62988", "longitude": "-117.49054", "elevation": "3,249"},
{"state": "California", "area_name": "Palos Verdes Peninsula", "id": "/area/118978720/palos-verdes-peninsula", "latitude": "33.76897", "longitude": "-118.41507", "elevation": "230"},
{"state": "California", "area_name": "Chatsworth", "id": "/area/116133315/chatsworth", "latitude": "34.03254", "longitude": "-118.63521", "elevation": "-34"},
{"state": "California", "area_name": "Beaches", "id": "/area/111473010/beaches", "latitude": "33.57856", "longitude": "-118.31861", "elevation": "-2,080"},
{"state": "California", "area_name": "Angeles National Forest", "id": "/area/105932975/angeles-national-forest", "latitude": "34.34823", "longitude": "-117.94542", "elevation": "6,610"},
{"state": "California", "area_name": "Warner Valley", "id": "/area/106940039/warner-valley", "latitude": "40.393", "longitude": "-121.3078", "elevation": "5,000"},
{"state": "California", "area_name": "Upper Bidwell Park", "id": "/area/110552615/upper-bidwell-park", "latitude": "39.77165", "longitude": "-121.76693", "elevation": "800"},
{"state": "California", "area_name": "Tom's Thumb", "id": "/area/106940046/toms-thumb", "latitude": "40.25375", "longitude": "-120.53431", "elevation": "5,000"},
{"state": "California", "area_name": "The Throne of the Mountain Gods", "id": "/area/106405241/the-throne-of-the-mountain-gods", "latitude": "41.342", "longitude": "-122.261", "elevation": "7,000"},
{"state": "California", "area_name": "South Fork", "id": "/area/107687122/south-fork", "latitude": "41.2838", "longitude": "-122.38", "elevation": "3,616"},
{"state": "California", "area_name": "River x", "id": "/area/118254337/river-x", "latitude": "40.49729", "longitude": "-122.50051", "elevation": "625"},
{"state": "California", "area_name": "Portola potty", "id": "/area/117090476/portola-potty", "latitude": "39.77221", "longitude": "-120.43353", "elevation": "7,162"},
{"state": "California", "area_name": "Plum Valley boulders", "id": "/area/108720033/plum-valley-boulders", "latitude": "40.72068", "longitude": "-121.39594", "elevation": "4,717"},
{"state": "California", "area_name": "Pigeon Cliff", "id": "/area/106940043/pigeon-cliff", "latitude": "40.42115", "longitude": "-120.67344", "elevation": "2,500"},
{"state": "California", "area_name": "Panther Springs", "id": "/area/111900811/panther-springs", "latitude": "40.24717", "longitude": "-121.77778", "elevation": "3,200"},
{"state": "California", "area_name": "Ney Springs", "id": "/area/110786419/ney-springs", "latitude": "41.25912", "longitude": "-122.33644", "elevation": "3,548"},
{"state": "California", "area_name": "Mt. Shasta", "id": "/area/106464248/mt-shasta", "latitude": "41.4092", "longitude": "-122.1949", "elevation": "14,179"},
{"state": "California", "area_name": "Moonlight Crags", "id": "/area/112336533/moonlight-crags", "latitude": "40.17258", "longitude": "-120.81003", "elevation": "5,291"},
{"state": "California", "area_name": "Montgomery Creek Falls", "id": "/area/118815580/montgomery-creek-falls", "latitude": "40.83784", "longitude": "-121.92834", "elevation": "2,066"},
{"state": "California", "area_name": "The Mill", "id": "/area/109318878/the-mill", "latitude": "40.1927", "longitude": "-121.72595", "elevation": "3,000"},
{"state": "California", "area_name": "Lover's Leap", "id": "/area/110085778/lovers-leap-limestone", "latitude": "41.3633", "longitude": "-122.69197", "elevation": "5,128"},
{"state": "California", "area_name": "The Lost Sierra", "id": "/area/109880327/the-lost-sierra", "latitude": "39.56554", "longitude": "-120.63159", "elevation": "4,222"},
{"state": "California", "area_name": "Lone Rock", "id": "/area/113569486/lone-rock", "latitude": "40.24509", "longitude": "-120.70933", "elevation": "5,790"},
{"state": "California", "area_name": "Lassen National Park", "id": "/area/110615148/lassen-national-park", "latitude": "40.51228", "longitude": "-121.4394", "elevation": "8,000"},
{"state": "California", "area_name": "Klamath River Bend", "id": "/area/118868173/klamath-river-bend", "latitude": "41.98079", "longitude": "-122.35601", "elevation": "2,374"},
{"state": "California", "area_name": "Iron Gate Crags", "id": "/area/106844014/iron-gate-crags", "latitude": "41.96429", "longitude": "-122.4404", "elevation": "2,421"},
{"state": "California", "area_name": "HWY 44 (East of Redding)", "id": "/area/110614268/hwy-44-east-of-redding", "latitude": "40.53211", "longitude": "-121.63028", "elevation": "5"},
{"state": "California", "area_name": "Hedge Creek Falls", "id": "/area/106405250/hedge-creek-falls", "latitude": "41.2362", "longitude": "-122.26979", "elevation": "2,627"},
{"state": "California", "area_name": "Grizzly Dome", "id": "/area/110693354/grizzly-dome", "latitude": "39.86873", "longitude": "-121.37346", "elevation": "1,620"},
{"state": "California", "area_name": "Frenchman Lake", "id": "/area/117719289/frenchman-lake", "latitude": "39.88033", "longitude": "-120.18757", "elevation": "5,591"},
{"state": "California", "area_name": "Dunsmuir Grotto", "id": "/area/114520560/dunsmuir-grotto", "latitude": "41.22005", "longitude": "-122.2792", "elevation": "2,505"},
{"state": "California", "area_name": "Doyle", "id": "/area/116166857/doyle", "latitude": "40.04518", "longitude": "-120.10366", "elevation": "4,251"},
{"state": "California", "area_name": "Crystal Lake", "id": "/area/112232061/crystal-lake", "latitude": "40.0467", "longitude": "-120.88407", "elevation": "6,701"},
{"state": "California", "area_name": "Cortizone Corner", "id": "/area/108439848/cortizone-corner", "latitude": "40.76099", "longitude": "-123.09676", "elevation": "1,513"},
{"state": "California", "area_name": "Castle Crags", "id": "/area/106053028/castle-crags", "latitude": "41.15954", "longitude": "-122.3059", "elevation": "2,613"},
{"state": "California", "area_name": "Cantara Loop", "id": "/area/107827251/cantara-loop", "latitude": "41.26597", "longitude": "-122.31137", "elevation": "80"},
{"state": "California", "area_name": "Byron\u2019s Boulder", "id": "/area/114510613/byrons-boulder", "latitude": "41.3453", "longitude": "-122.27503", "elevation": "4,951"},
{"state": "California", "area_name": "Burney Limestone (aka The Shredding)", "id": "/area/107305069/burney-limestone-aka-the-shredding", "latitude": "40.77846", "longitude": "-122.00404", "elevation": "1,412"},
{"state": "California", "area_name": "Bathroom Boulder", "id": "/area/114510913/bathroom-boulder", "latitude": "41.23101", "longitude": "-122.38239", "elevation": "5,449"},
{"state": "California", "area_name": "Trinity Alps", "id": "/area/107777991/trinity-alps", "latitude": "40.9796", "longitude": "-123.0022", "elevation": "6,000"},
{"state": "California", "area_name": "Strawberry Rock", "id": "/area/114292684/strawberry-rock", "latitude": "41.0839", "longitude": "-124.1338", "elevation": "728"},
{"state": "California", "area_name": "So-So Grotto", "id": "/area/108618408/so-so-grotto", "latitude": "40.79552", "longitude": "-123.52377", "elevation": "3,406"},
{"state": "California", "area_name": "The Sanctuary", "id": "/area/116235364/the-sanctuary", "latitude": "40.78318", "longitude": "-123.5156", "elevation": "3,332"},
{"state": "California", "area_name": "The Roost", "id": "/area/113175170/the-roost", "latitude": "40.75753", "longitude": "-123.46923", "elevation": "3,165"},
{"state": "California", "area_name": "Promontory", "id": "/area/106024808/promontory", "latitude": "41.6065", "longitude": "-124.1051", "elevation": "50"},
{"state": "California", "area_name": "Patrick's Point State Park", "id": "/area/105876109/patricks-point-state-park", "latitude": "41.1384", "longitude": "-124.1562", "elevation": "246"},
{"state": "California", "area_name": "Ossagon Rocks", "id": "/area/111653370/ossagon-rocks", "latitude": "41.44402", "longitude": "-124.06443", "elevation": "8"},
{"state": "California", "area_name": "Natural Bridge / High Rock", "id": "/area/110585461/natural-bridge-high-rock", "latitude": "40.49202", "longitude": "-123.10398", "elevation": "2,846"},
{"state": "California", "area_name": "Moonstone Beach", "id": "/area/105882032/moonstone-beach", "latitude": "41.03", "longitude": "-124.1125", "elevation": "10"},
{"state": "California", "area_name": "Marble Mountain", "id": "/area/117127488/marble-mountain", "latitude": "41.56564", "longitude": "-123.19882", "elevation": "5,805"},
{"state": "California", "area_name": "Marble Caves", "id": "/area/106042239/marble-caves", "latitude": "40.39359", "longitude": "-123.32989", "elevation": "3,853"},
{"state": "California", "area_name": "Luffenholtz Beach", "id": "/area/105883562/luffenholtz-beach", "latitude": "41.04157", "longitude": "-124.11932", "elevation": "73"},
{"state": "California", "area_name": "Lost Rocks", "id": "/area/105846967/lost-rocks", "latitude": "41.5196", "longitude": "-124.0815", "elevation": "13"},
{"state": "California", "area_name": "Land Of The Lost", "id": "/area/109219793/land-of-the-lost", "latitude": "40.85517", "longitude": "-123.71278", "elevation": "4,312"},
{"state": "California", "area_name": "Houda Point", "id": "/area/105882104/houda-point", "latitude": "41.0353", "longitude": "-124.1192", "elevation": "41.035, -124.119\n                        <a target=\"_blank\" href=\"http://maps.google.com/maps?q=41.0353,-124.1192&amp;t=h&amp;hl=en\">Google\n                            Map</a> &amp;middot <a href=\"https://www.mountainproject.com/map/105882104/houda-point\">Climbing Area Map</a>\n                    </td>"},
{"state": "California", "area_name": "High Bluffs", "id": "/area/111119317/high-bluffs", "latitude": "41.50877", "longitude": "-124.07899", "elevation": "168"},
{"state": "California", "area_name": "The Hayfork Haven", "id": "/area/117794192/the-hayfork-haven", "latitude": "40.50019", "longitude": "-123.1", "elevation": "2,965"},
{"state": "California", "area_name": "Goat Rocks", "id": "/area/105877367/goat-rocks", "latitude": "40.4672", "longitude": "-123.8052", "elevation": "669"},
{"state": "California", "area_name": "Footsteps Rock", "id": "/area/105909069/footsteps-rock", "latitude": "41.6155", "longitude": "-124.115", "elevation": "196"},
{"state": "California", "area_name": "Dos Rios", "id": "/area/113553216/dos-rios", "latitude": "39.71331", "longitude": "-123.35277", "elevation": "862"},
{"state": "California", "area_name": "Cold Springs", "id": "/area/113508276/cold-springs", "latitude": "40.83243", "longitude": "-123.71708", "elevation": "4,512"},
{"state": "California", "area_name": "Chezem Cliffs", "id": "/area/114557159/chezem-cliffs", "latitude": "40.92222", "longitude": "-123.79661", "elevation": "1,621"},
{"state": "California", "area_name": "Cecilville Bluffs", "id": "/area/112331486/cecilville-bluffs", "latitude": "41.14647", "longitude": "-123.19926", "elevation": "2,416"},
{"state": "California", "area_name": "The Caverns", "id": "/area/113495047/the-caverns", "latitude": "40.67228", "longitude": "-123.14493", "elevation": "3,919"},
{"state": "California", "area_name": "Castle Rock", "id": "/area/106455291/castle-rock", "latitude": "40.74952", "longitude": "-123.51773", "elevation": "3,704"},
{"state": "California", "area_name": "Carruther's Cove", "id": "/area/111118799/carruthers-cove", "latitude": "41.46235", "longitude": "-124.06562", "elevation": "1"},
{"state": "California", "area_name": "Running Springs Area", "id": "/area/109292712/running-springs-area", "latitude": "34.20761", "longitude": "-117.10876", "elevation": "6,087"},
{"state": "California", "area_name": "Arcata Area", "id": "/area/111546585/arcata-area", "latitude": "40.8664", "longitude": "-124.0828", "elevation": "500"},
{"state": "California", "area_name": "Lake Arrowhead Area", "id": "/area/109292709/lake-arrowhead-area", "latitude": "34.24883", "longitude": "-117.18978", "elevation": "5,195"},
{"state": "California", "area_name": "Mormon Rocks", "id": "/area/106331336/mormon-rocks", "latitude": "34.3199", "longitude": "-117.4961", "elevation": "3,100"},
{"state": "California", "area_name": "Highway 38 Crags", "id": "/area/109292743/highway-38-crags", "latitude": "34.14625", "longitude": "-116.98327", "elevation": "5,741"},
{"state": "California", "area_name": "Galena Peak", "id": "/area/111678100/galena-peak", "latitude": "34.07121", "longitude": "-116.84611", "elevation": "7,400"},
{"state": "California", "area_name": "Big Bear Lake Area", "id": "/area/109292716/big-bear-lake-area", "latitude": "34.25471", "longitude": "-116.93604", "elevation": "6,745"},
{"state": "California", "area_name": "North San Diego County", "id": "/area/111860919/north-san-diego-county", "latitude": "33.00909", "longitude": "-117.08363", "elevation": "800"},
{"state": "California", "area_name": "Wine Country", "id": "/area/111499894/wine-country", "latitude": "38.27211", "longitude": "-122.66266", "elevation": "46"},
{"state": "California", "area_name": "West Ridge Rocks", "id": "/area/114575163/west-ridge-rocks", "latitude": "37.8251", "longitude": "-122.18469", "elevation": "1,386"},
{"state": "California", "area_name": "Vista Rock", "id": "/area/111944970/vista-rock", "latitude": "37.49717", "longitude": "-122.31558", "elevation": "540"},
{"state": "California", "area_name": "Shark Fin Cove", "id": "/area/117385064/shark-fin-cove", "latitude": "37.00389", "longitude": "-122.18538", "elevation": "13"},
{"state": "California", "area_name": "Rocky Outcrop Park", "id": "/area/114452471/rocky-outcrop-park", "latitude": "37.75441", "longitude": "-122.47092", "elevation": "639"},
{"state": "California", "area_name": "Ring Mountain", "id": "/area/105733911/ring-mountain", "latitude": "37.9095", "longitude": "-122.4828", "elevation": "371"},
{"state": "California", "area_name": "Rattle Snake Rock", "id": "/area/118178241/rattle-snake-rock", "latitude": "37.4024", "longitude": "-122.2288", "elevation": "604"},
{"state": "California", "area_name": "Point Reyes National Seashore", "id": "/area/107430823/point-reyes-national-seashore", "latitude": "38.0905", "longitude": "-122.9212", "elevation": "184"},
{"state": "California", "area_name": "Pacifica Headlands", "id": "/area/111263815/pacifica-headlands", "latitude": "37.6056", "longitude": "-122.50045", "elevation": "173"},
{"state": "California", "area_name": "Mount Tamalpais", "id": "/area/105733923/mount-tamalpais", "latitude": "37.9291", "longitude": "-122.578", "elevation": "2,539"},
{"state": "California", "area_name": "Mount Diablo State Park", "id": "/area/105733896/mount-diablo-state-park", "latitude": "37.8817", "longitude": "-121.9146", "elevation": "3,838"},
{"state": "California", "area_name": "Mickey's Beach", "id": "/area/105733884/mickeys-beach", "latitude": "37.8886", "longitude": "-122.6327", "elevation": "65"},
{"state": "California", "area_name": "The Mazzones", "id": "/area/107145240/the-mazzones", "latitude": "37.2317", "longitude": "-121.8613", "elevation": "421"},
{"state": "California", "area_name": "Lexington Rock", "id": "/area/116604189/lexington-rock", "latitude": "37.20773", "longitude": "-121.98921", "elevation": "460"},
{"state": "California", "area_name": "Indian Joe Caves", "id": "/area/105734087/indian-joe-caves", "latitude": "37.52482", "longitude": "-121.81779", "elevation": "967"},
{"state": "California", "area_name": "Hicks Road", "id": "/area/116559606/hicks-road", "latitude": "37.19564", "longitude": "-121.87683", "elevation": "647"},
{"state": "California", "area_name": "Glen Canyon", "id": "/area/105733962/glen-canyon", "latitude": "37.7408", "longitude": "-122.4398", "elevation": "490"},
{"state": "California", "area_name": "Coyote Hills", "id": "/area/107779069/coyote-hills", "latitude": "37.5512", "longitude": "-122.0866", "elevation": "79"},
{"state": "California", "area_name": "Cliff House Boulders", "id": "/area/109482205/cliff-house-boulders", "latitude": "37.77778", "longitude": "-122.51362", "elevation": "12"},
{"state": "California", "area_name": "Castle Rock Area", "id": "/area/105733890/castle-rock-area", "latitude": "37.23049", "longitude": "-122.09476", "elevation": "3,023"},
{"state": "California", "area_name": "Buildering and Manufactured Walls", "id": "/area/107486032/buildering-and-manufactured-walls", "latitude": "37.81843", "longitude": "-122.28806", "elevation": "10"},
{"state": "California", "area_name": "Black Sand Beach", "id": "/area/108049232/black-sand-beach", "latitude": "37.8251", "longitude": "-122.5138", "elevation": "10"},
{"state": "California", "area_name": "Big Basin State Park", "id": "/area/111976630/big-basin-state-park", "latitude": "37.17301", "longitude": "-122.21983", "elevation": "1,061"},
{"state": "California", "area_name": "Berkeley", "id": "/area/105733965/berkeley", "latitude": "37.89017", "longitude": "-122.27239", "elevation": "315"},
{"state": "California", "area_name": "Beaver Street Wall", "id": "/area/105733887/beaver-street-wall", "latitude": "37.7655", "longitude": "-122.4368", "elevation": "269"},
{"state": "California", "area_name": "Bean Hollow State Beach", "id": "/area/117014406/bean-hollow-state-beach", "latitude": "37.23614", "longitude": "-122.41617", "elevation": "8"},
{"state": "California", "area_name": "South Ridge Boulders", "id": "/area/107357565/south-ridge-boulders", "latitude": "33.73545", "longitude": "-116.69699", "elevation": "6,458"},
{"state": "California", "area_name": "Relativity Boulders", "id": "/area/118162702/relativity-boulders", "latitude": "33.75892", "longitude": "-116.74603", "elevation": "6,132"},
{"state": "California", "area_name": "Mt. San Jacinto", "id": "/area/107106613/mt-san-jacinto", "latitude": "33.81444", "longitude": "-116.67916", "elevation": "10,759"},
{"state": "California", "area_name": "Idyllwild County Park", "id": "/area/106634715/idyllwild-county-park", "latitude": "33.7441", "longitude": "-116.7225", "elevation": "5,500"},
{"state": "California", "area_name": "Humber Park", "id": "/area/106711711/humber-park", "latitude": "33.7653", "longitude": "-116.6867", "elevation": "6,000"},
{"state": "California", "area_name": "Halo Boulder", "id": "/area/118898640/halo-boulder", "latitude": "33.73482", "longitude": "-116.76315", "elevation": "4,719"},
{"state": "California", "area_name": "Garner Valley", "id": "/area/105879566/garner-valley", "latitude": "33.6321", "longitude": "-116.6414", "elevation": "5,000"},
{"state": "California", "area_name": "Dry Falls", "id": "/area/106775078/dry-falls", "latitude": "33.8299", "longitude": "-116.57087", "elevation": "1,112"},
{"state": "California", "area_name": "Cabazon Canyon", "id": "/area/110302737/cabazon-canyon", "latitude": "33.88316", "longitude": "-116.75031", "elevation": "2,000"},
{"state": "California", "area_name": "Black Mountain", "id": "/area/105991127/black-mountain", "latitude": "33.82629", "longitude": "-116.7591", "elevation": "7,508"},
{"state": "California", "area_name": "Backcountry Bouldering", "id": "/area/108366346/backcountry-bouldering", "latitude": "33.73939", "longitude": "-116.71304", "elevation": "5,529"},
{"state": "California", "area_name": "Tehipite Dome", "id": "/area/107880765/tehipite-dome", "latitude": "36.9188", "longitude": "-118.781", "elevation": "7,708"},
{"state": "California", "area_name": "Tamarack Lake Area", "id": "/area/108245005/tamarack-lake-area", "latitude": "36.5822", "longitude": "-118.567", "elevation": "9,214"},
{"state": "California", "area_name": "Panther Peak", "id": "/area/113588201/panther-peak", "latitude": "36.58326", "longitude": "-118.71563", "elevation": "9,049"},
{"state": "California", "area_name": "The Obelisk", "id": "/area/107739679/the-obelisk", "latitude": "36.9079", "longitude": "-118.854", "elevation": "9,700"},
{"state": "California", "area_name": "Neat Wall", "id": "/area/111724179/neat-wall", "latitude": "36.57119", "longitude": "-118.77667", "elevation": "6,079"},
{"state": "California", "area_name": "Moro Rock", "id": "/area/106056834/moro-rock-seki", "latitude": "36.54409", "longitude": "-118.7651", "elevation": "5,926"},
{"state": "California", "area_name": "Lost Canyon", "id": "/area/118306383/lost-canyon", "latitude": "36.46363", "longitude": "-118.5321", "elevation": "10,209"},
{"state": "California", "area_name": "Little Baldy", "id": "/area/108014684/little-baldy", "latitude": "36.6141", "longitude": "-118.8049", "elevation": "8,050"},
{"state": "California", "area_name": "Kings Canyon", "id": "/area/106616033/kings-canyon", "latitude": "36.7893", "longitude": "-118.67289", "elevation": "4,641"},
{"state": "California", "area_name": "Kaweah Lake", "id": "/area/108501479/kaweah-lake", "latitude": "36.48966", "longitude": "-118.86411", "elevation": "2,347"},
{"state": "California", "area_name": "Hospital Rock Area", "id": "/area/107334068/hospital-rock-area", "latitude": "36.52062", "longitude": "-118.77164", "elevation": "2,688"},
{"state": "California", "area_name": "The Gorge of Despair", "id": "/area/107028672/the-gorge-of-despair", "latitude": "36.8916", "longitude": "-118.7582", "elevation": "8,044"},
{"state": "California", "area_name": "Danland", "id": "/area/110080892/danland", "latitude": "36.43911", "longitude": "-118.76283", "elevation": "4,000"},
{"state": "California", "area_name": "Cliff Creek Canyon", "id": "/area/112032461/cliff-creek-canyon", "latitude": "36.48088", "longitude": "-118.56755", "elevation": "9,370"},
{"state": "California", "area_name": "Hamilton Lakes and Valhalla", "id": "/area/109463028/hamilton-lakes-and-valhalla", "latitude": "36.56305", "longitude": "-118.57906", "elevation": "8,305"},
{"state": "California", "area_name": "Chimney Rocks", "id": "/area/107880586/chimney-rocks", "latitude": "36.654", "longitude": "-118.8667", "elevation": "7,500"},
{"state": "California", "area_name": "Castle Rocks", "id": "/area/108254108/castle-rocks", "latitude": "36.5027", "longitude": "-118.7141", "elevation": "8,000"},
{"state": "California", "area_name": "Buck Rock", "id": "/area/108155814/buck-rock", "latitude": "36.7372", "longitude": "-118.8607", "elevation": "8,500"},
{"state": "California", "area_name": "Big Baldy", "id": "/area/108089750/big-baldy", "latitude": "36.6602", "longitude": "-118.8837", "elevation": "8,000"},
{"state": "California", "area_name": "SEKI Bouldering", "id": "/area/106690051/seki-bouldering", "latitude": "36.57299", "longitude": "-118.7516", "elevation": "6,954"},
{"state": "California", "area_name": "Table Mountain", "id": "/area/105733998/table-mountain", "latitude": "37.93214", "longitude": "-120.46232", "elevation": "1,323"},
{"state": "California", "area_name": "Sonora Pass Bouldering", "id": "/area/107855425/sonora-pass-bouldering", "latitude": "38.3143", "longitude": "-119.6056", "elevation": "8,735"},
{"state": "California", "area_name": "Road 5N06 Area", "id": "/area/105733983/road-5n06-area", "latitude": "38.31045", "longitude": "-119.9388", "elevation": "6,508"},
{"state": "California", "area_name": "Pinecrest Lake", "id": "/area/117565899/pinecrest-lake", "latitude": "38.19599", "longitude": "-119.9825", "elevation": "5,628"},
{"state": "California", "area_name": "Lyons Reservoir Road", "id": "/area/118056879/lyons-reservoir-road", "latitude": "38.07914", "longitude": "-120.16356", "elevation": "4,917"},
{"state": "California", "area_name": "LTA", "id": "/area/112231123/lta", "latitude": "38.32984", "longitude": "-119.55339", "elevation": "7,212"},
{"state": "California", "area_name": "Knight's Ferry", "id": "/area/107026528/knights-ferry", "latitude": "37.8195", "longitude": "-120.66678", "elevation": "183"},
{"state": "California", "area_name": "Jailhouse Rock", "id": "/area/107027308/jailhouse-rock", "latitude": "37.907", "longitude": "-120.55819", "elevation": "958"},
{"state": "California", "area_name": "Herring Creek Dome", "id": "/area/105733920/herring-creek-dome", "latitude": "38.2367", "longitude": "-119.9319", "elevation": "7,774"},
{"state": "California", "area_name": "Emigrant Wilderness", "id": "/area/111670549/emigrant-wilderness", "latitude": "38.17943", "longitude": "-119.90973", "elevation": "7,240"},
{"state": "California", "area_name": "Donnell Reservoir", "id": "/area/114357798/donnell-reservoir", "latitude": "38.33999", "longitude": "-119.9417", "elevation": "4,920"},
{"state": "California", "area_name": "Columbia Bouldering", "id": "/area/109980899/columbia-bouldering", "latitude": "38.03211", "longitude": "-120.39402", "elevation": "2,237"},
{"state": "California", "area_name": "Chipmunk Flat", "id": "/area/114424488/chipmunk-flat", "latitude": "38.32293", "longitude": "-119.67783", "elevation": "8,291"},
{"state": "California", "area_name": "Burst Rock", "id": "/area/113656929/burst-rock", "latitude": "38.19817", "longitude": "-119.88392", "elevation": "8,593"},
{"state": "California", "area_name": "Tar Creek (the Swimming Hole)", "id": "/area/105796891/tar-creek-the-swimming-hole", "latitude": "34.4573", "longitude": "-118.9232", "elevation": "737"},
{"state": "California", "area_name": "Santa Cruz", "id": "/area/111557766/santa-cruz", "latitude": "36.99868", "longitude": "-122.02371", "elevation": "50"},
{"state": "California", "area_name": "Santa Barbara", "id": "/area/105792810/santa-barbara", "latitude": "34.4477", "longitude": "-119.68", "elevation": "438"},
{"state": "California", "area_name": "San Luis Obispo", "id": "/area/105737095/san-luis-obispo", "latitude": "35.3063", "longitude": "-120.678", "elevation": "310"},
{"state": "California", "area_name": "Point Mugu", "id": "/area/106508646/point-mugu", "latitude": "34.0861", "longitude": "-119.0589", "elevation": "49"},
{"state": "California", "area_name": "Pinnacles National Park", "id": "/area/105733947/pinnacles-national-park", "latitude": "36.5004", "longitude": "-121.202", "elevation": "1,430"},
{"state": "California", "area_name": "Nordic Base Boulder", "id": "/area/115390088/nordic-base-boulder", "latitude": "34.81639", "longitude": "-119.12961", "elevation": "8,485"},
{"state": "California", "area_name": "Hwy 33/Ojai", "id": "/area/105796942/hwy-33ojai", "latitude": "34.4873", "longitude": "-119.303", "elevation": "1,269"},
{"state": "California", "area_name": "Hwy 166/Silly Rock", "id": "/area/105737123/hwy-166silly-rock", "latitude": "35.1109", "longitude": "-120.096", "elevation": "1,261"},
{"state": "California", "area_name": "Conejo Mountain", "id": "/area/105850674/conejo-mountain", "latitude": "34.1978", "longitude": "-118.9635", "elevation": "951"},
{"state": "California", "area_name": "Carmel Bay", "id": "/area/107798290/carmel-bay", "latitude": "36.5388", "longitude": "-121.9278", "elevation": "13"},
{"state": "California", "area_name": "Camarillo Springs Boulder (Lonesome Cube)", "id": "/area/107146192/camarillo-springs-boulder-lonesome-cube", "latitude": "34.2029", "longitude": "-118.972", "elevation": "296"},
{"state": "California", "area_name": "Big Sur", "id": "/area/105737120/big-sur", "latitude": "35.8386", "longitude": "-121.4012", "elevation": "28"},
{"state": "California", "area_name": "White Tank Campground", "id": "/area/105923001/white-tank-campground", "latitude": "33.9861", "longitude": "-116.0166", "elevation": "3,831"},
{"state": "California", "area_name": "Stirrup Tank", "id": "/area/105720600/stirrup-tank", "latitude": "33.96026", "longitude": "-116.0179", "elevation": "3,524"},
{"state": "California", "area_name": "Split Rocks", "id": "/area/105720582/split-rocks", "latitude": "34.0094", "longitude": "-116.0558", "elevation": "4,200"},
{"state": "California", "area_name": "Sheep Pass Area", "id": "/area/105720579/sheep-pass-area", "latitude": "33.9986", "longitude": "-116.1448", "elevation": "4,200"},
{"state": "California", "area_name": "Roadside Rocks", "id": "/area/105720609/roadside-rocks", "latitude": "34.0213", "longitude": "-116.1728", "elevation": "4,216"},
{"state": "California", "area_name": "Real Hidden Valley", "id": "/area/105720636/real-hidden-valley", "latitude": "34.0145", "longitude": "-116.1713", "elevation": "4,200"},
{"state": "California", "area_name": "Quail Springs Area", "id": "/area/105720621/quail-springs-area", "latitude": "34.0402", "longitude": "-116.1976", "elevation": "3,976"},
{"state": "California", "area_name": "OZ Area", "id": "/area/105720648/oz-area", "latitude": "34.0322", "longitude": "-116.0403", "elevation": "4,000"},
{"state": "California", "area_name": "The Outback", "id": "/area/105720597/the-outback", "latitude": "34.0208", "longitude": "-116.1659", "elevation": "4,200"},
{"state": "California", "area_name": "Queen Mountain", "id": "/area/105720627/queen-mountain", "latitude": "34.0481", "longitude": "-116.1021", "elevation": "5,200"},
{"state": "California", "area_name": "North 40 (aka Doolittle House Area)", "id": "/area/112208375/north-40-aka-doolittle-house-area", "latitude": "34.10523", "longitude": "-116.22744", "elevation": "3,208"},
{"state": "California", "area_name": "Nancy Karl Trail", "id": "/area/117538699/nancy-karl-trail", "latitude": "34.10524", "longitude": "-116.31999", "elevation": "3,275"},
{"state": "California", "area_name": "Loveland", "id": "/area/105720612/loveland", "latitude": "34.02388", "longitude": "-116.052", "elevation": "3,967"},
{"state": "California", "area_name": "Lost Horse Area", "id": "/area/105720588/lost-horse-area", "latitude": "34.0213", "longitude": "-116.1793", "elevation": "4,100"},
{"state": "California", "area_name": "Live Oak Picnic Area", "id": "/area/105720651/live-oak-picnic-area", "latitude": "33.9992", "longitude": "-116.0533", "elevation": "4,253"},
{"state": "California", "area_name": "Jumbo Rock Area", "id": "/area/105720585/jumbo-rock-area", "latitude": "33.992", "longitude": "-116.0682", "elevation": "4,400"},
{"state": "California", "area_name": "Interstate 10 Crags", "id": "/area/106779234/interstate-10-crags", "latitude": "33.6684", "longitude": "-115.6546", "elevation": "1,422"},
{"state": "California", "area_name": "Indian Head Area", "id": "/area/106042348/indian-head-area", "latitude": "34.0982", "longitude": "-116.0615", "elevation": "3,500"},
{"state": "California", "area_name": "Indian Cove", "id": "/area/105720570/indian-cove", "latitude": "34.0938", "longitude": "-116.1566", "elevation": "3,000"},
{"state": "California", "area_name": "Hospital Crags", "id": "/area/106770887/hospital-crags", "latitude": "34.12291", "longitude": "-116.27685", "elevation": "34.123, -116.277\n                        <a target=\"_blank\" href=\"http://maps.google.com/maps?q=34.12291,-116.27685&amp;t=h&amp;hl=en\">Google\n                            Map</a> &amp;middot <a href=\"https://www.mountainproject.com/map/106770887/hospital-crags\">Climbing Area Map</a>\n                    </td>"},
{"state": "California", "area_name": "Hidden Valley Campground", "id": "/area/105720573/hidden-valley-campground", "latitude": "34.0162", "longitude": "-116.1614", "elevation": "4,200"},
{"state": "California", "area_name": "Geology Tour Road", "id": "/area/105797841/geology-tour-road", "latitude": "33.93556", "longitude": "-116.07739", "elevation": "3,712"},
{"state": "California", "area_name": "Forty Nine Palms Oasis Area", "id": "/area/106735238/forty-nine-palms-oasis-area", "latitude": "34.12765", "longitude": "-116.09929", "elevation": "2,175"},
{"state": "California", "area_name": "Echo Rock Area", "id": "/area/105720576/echo-rock-area", "latitude": "34.02283", "longitude": "-116.15688", "elevation": "4,200"},
{"state": "California", "area_name": "Desert Queen Mine", "id": "/area/105720639/desert-queen-mine", "latitude": "34.02218", "longitude": "-116.06973", "elevation": "4,467"},
{"state": "California", "area_name": "Del Taco Crags Area", "id": "/area/106735267/del-taco-crags-area", "latitude": "34.12817", "longitude": "-116.07306", "elevation": "2,096"},
{"state": "California", "area_name": "Coxcomb Mountains", "id": "/area/106779192/cox", "latitude": "33.98127", "longitude": "-115.34487", "elevation": "33.981, -115.345\n                        <a target=\"_blank\" href=\"http://maps.google.com/maps?q=33.98127,-115.34487&amp;t=h&amp;hl=en\">Google\n                            Map</a> &amp;middot <a href=\"https://www.mountainproject.com/map/106779192/coxcomb-mountains\">Climbing Area Map</a>\n                    </td>"},
{"state": "California", "area_name": "Cottonwood Area", "id": "/area/106788417/cottonwood-area", "latitude": "33.72885", "longitude": "-115.79655", "elevation": "3,204"},
{"state": "California", "area_name": "Comic Book Area", "id": "/area/105720642/", "latitude": "34.01422", "longitude": "-116.14581", "elevation": "4,324"},
{"state": "California", "area_name": "Black Rock Canyon CG", "id": "/area/113716062/black-rock-canyon-cg", "latitude": "34.07521", "longitude": "-116.3879", "elevation": "3,975"},
{"state": "California", "area_name": "Outlying Areas", "id": "/area/110847769/outlying-areas", "latitude": "37.85028", "longitude": "-118.3607", "elevation": "11,253"},
{"state": "California", "area_name": "14 - Whitney & Surrounding Peaks", "id": "/area/110503166/14-whitney-surrounding-peaks", "latitude": "36.57844", "longitude": "-118.29229", "elevation": "14,473"},
{"state": "California", "area_name": "13 - Shepherd Pass", "id": "/area/110847791/13-shepherd-pass", "latitude": "36.72732", "longitude": "-118.27886", "elevation": "6,304"},
{"state": "California", "area_name": "12 - Kearsarge Pass to Cedar Grove", "id": "/area/110847783/12-kearsarge-pass-to-cedar-grove", "latitude": "36.77144", "longitude": "-118.40445", "elevation": "10,615"},
{"state": "California", "area_name": "11 - Great Western & Kings/Kern Divide", "id": "/area/110820730/11-great-western-kingskern-divide", "latitude": "36.6692", "longitude": "-118.47605", "elevation": "13,527"},
{"state": "California", "area_name": "10 - Taboose, Sawmill & Baxter Passes", "id": "/area/114076816/10-taboose-sawmill-baxter-passes", "latitude": "36.90922", "longitude": "-118.37533", "elevation": "11,215"},
{"state": "California", "area_name": "09 - Palisades & Surrounding Peaks", "id": "/area/110511970/09-palisades-surrounding-peaks", "latitude": "37.08331", "longitude": "-118.49078", "elevation": "13,353"},
{"state": "California", "area_name": "08 - Bishop Pass & Evolution", "id": "/area/110819748/08-bishop-pass-evolution", "latitude": "37.16766", "longitude": "-118.57093", "elevation": "9,734"},
{"state": "California", "area_name": "07 - Humphreys Basin, Pine Creek & Granite Park", "id": "/area/110819764/07-humphreys-basin-pine-creek-granite-park", "latitude": "37.27073", "longitude": "-118.67329", "elevation": "13,374"},
{"state": "California", "area_name": "06 - Little Lakes Valley & Mono Recesses", "id": "/area/110530477/06-little-lakes-valley-mono-recesses", "latitude": "37.41135", "longitude": "-118.78302", "elevation": "12,598"},
{"state": "California", "area_name": "05 - Convict Lake & McGee Creek", "id": "/area/110847763/05-convict-lake-mcgee-creek", "latitude": "37.58831", "longitude": "-118.85972", "elevation": "7,581"},
{"state": "California", "area_name": "04 - Ritter & Minarets", "id": "/area/110847705/04-ritter-minarets", "latitude": "37.65117", "longitude": "-119.03721", "elevation": "8,888"},
{"state": "California", "area_name": "03 - Lyell Group", "id": "/area/110847759/03-lyell-group", "latitude": "37.74393", "longitude": "-119.27257", "elevation": "12,168"},
{"state": "California", "area_name": "02 - The Sawtooth Ridge", "id": "/area/110498412/02-the-sawtooth-ridge", "latitude": "38.10706", "longitude": "-119.40868", "elevation": "10,992"},
{"state": "California", "area_name": "01 - Hoover Wilderness", "id": "/area/111628664/01-hoover-wilderness", "latitude": "38.27931", "longitude": "-119.45277", "elevation": "8,149"},
{"state": "California", "area_name": "Yeti Dome (aka Musick Mountain)", "id": "/area/105817198/yeti-dome-aka-musick-mountain", "latitude": "37.1667", "longitude": "-119.3094", "elevation": "6,592"},
{"state": "California", "area_name": "Wishon Reservoir", "id": "/area/117602969/wishon-reservoir", "latitude": "37.01467", "longitude": "-118.96757", "elevation": "6,522"},
{"state": "California", "area_name": "Wimovi Pluton", "id": "/area/113627837/wimovi-pluton", "latitude": "37.14469", "longitude": "-119.31008", "elevation": "5,183"},
{"state": "California", "area_name": "Wilderness Wall", "id": "/area/106885855/wilderness-wall", "latitude": "37.2914", "longitude": "-119.1022", "elevation": "8,250"},
{"state": "California", "area_name": "Upper Jackass Lake", "id": "/area/106097740/upper-jackass-lake", "latitude": "37.52894", "longitude": "-119.35827", "elevation": "9,000"},
{"state": "California", "area_name": "Tollhouse Rock", "id": "/area/105733944/tollhouse-rock", "latitude": "37.033", "longitude": "-119.387", "elevation": "3,891"},
{"state": "California", "area_name": "Squarenail", "id": "/area/105734249/squarenail", "latitude": "37.0376", "longitude": "-119.4074", "elevation": "3,209"},
{"state": "California", "area_name": "Shuteye Ridge", "id": "/area/108046101/shuteye-ridge", "latitude": "37.35", "longitude": "-119.42759", "elevation": "8,296"},
{"state": "California", "area_name": "Sherman Pass", "id": "/area/117537319/sherman-pass", "latitude": "36.01391", "longitude": "-118.34698", "elevation": "8,533"},
{"state": "California", "area_name": "Shaver Lake Bouldering", "id": "/area/108093320/shaver-lake-bouldering", "latitude": "37.12398", "longitude": "-119.31439", "elevation": "5,492"},
{"state": "California", "area_name": "San Joaquin River Gorge", "id": "/area/118146963/san-joaquin-river-gorge", "latitude": "37.09184", "longitude": "-119.55492", "elevation": "652"},
{"state": "California", "area_name": "West Shore", "id": "/area/110530727/west-shore", "latitude": "39.05348", "longitude": "-120.11721", "elevation": "6,264"},
{"state": "California", "area_name": "Truckee River Canyon", "id": "/area/105733926/truckee-river-canyon", "latitude": "39.28778", "longitude": "-120.20748", "elevation": "5,887"},
{"state": "California", "area_name": "South Shore", "id": "/area/110561742/south-shore", "latitude": "38.9553", "longitude": "-119.94484", "elevation": "6,222"},
{"state": "California", "area_name": "I-80 Corridor", "id": "/area/105798284/i-80-corridor", "latitude": "39.31367", "longitude": "-120.47095", "elevation": "5,994"},
{"state": "California", "area_name": "Highway 50 Corridor", "id": "/area/109968910/highway-50-corridor", "latitude": "38.78955", "longitude": "-120.18256", "elevation": "5,526"},
{"state": "California", "area_name": "Ebbets Pass Highway", "id": "/area/114330086/ebbets-pass-highway-4", "latitude": "38.51637", "longitude": "-119.91139", "elevation": "8,055"},
{"state": "California", "area_name": "Carson Pass Highway", "id": "/area/113524488/carson-pass-highway-88", "latitude": "38.70675", "longitude": "-120.04997", "elevation": "7,793"},
{"state": "California", "area_name": "The Needles / Kern River", "id": "/area/105834180/the-needles-kern-river", "latitude": "36.02918", "longitude": "-118.46985", "elevation": "4,119"},
{"state": "California", "area_name": "Walker River Canyon", "id": "/area/107688415/walker-river-canyon", "latitude": "38.40273", "longitude": "-119.45365", "elevation": "6,554"},
{"state": "California", "area_name": "Wagonwheel Boulders", "id": "/area/118273891/wagonwheel-boulders", "latitude": "38.08851", "longitude": "-119.15846", "elevation": "7,515"},
{"state": "California", "area_name": "Mammoth Lakes Area", "id": "/area/106064821/mammoth-lakes-area", "latitude": "37.6468", "longitude": "-118.9659", "elevation": "8,100"},
{"state": "California", "area_name": "Lundy Canyon", "id": "/area/111342499/lundy-canyon", "latitude": "38.02261", "longitude": "-119.26141", "elevation": "8,122"},
{"state": "California", "area_name": "Lone Pine Area", "id": "/area/106064834/lone-pine-area", "latitude": "36.6062", "longitude": "-118.0637", "elevation": "3,700"},
{"state": "California", "area_name": "Lee Vining Canyon / Tioga Road", "id": "/area/109223681/lee-vining-canyon-tioga-road", "latitude": "37.93984", "longitude": "-119.1362", "elevation": "7,223"},
{"state": "California", "area_name": "June Lake Area", "id": "/area/106064816/june-lake-area", "latitude": "37.7805", "longitude": "-119.0755", "elevation": "7,600"},
{"state": "California", "area_name": "Indian Wells Canyon", "id": "/area/107329966/indian-wells-canyon", "latitude": "35.7155", "longitude": "-117.9743", "elevation": "5,000"},
{"state": "California", "area_name": "Fossil Falls", "id": "/area/109857674/fossil-falls", "latitude": "35.97175", "longitude": "-117.91079", "elevation": "3,300"},
{"state": "California", "area_name": "Eastern Hills", "id": "/area/106064838/eastern-hills", "latitude": "37.7599", "longitude": "-118.664", "elevation": "6,800"},
{"state": "California", "area_name": "Central Owens Valley", "id": "/area/108087983/central-owens-valley", "latitude": "36.91611", "longitude": "-118.24631", "elevation": "3,862"},
{"state": "California", "area_name": "Bishop Area", "id": "/area/106064825/bishop-area", "latitude": "37.36119", "longitude": "-118.39539", "elevation": "4,141"},
{"state": "California", "area_name": "Rise Again Rock", "id": "/area/110142175/rise-again-rock", "latitude": "37.14955", "longitude": "-119.30122", "elevation": "5,400"},
{"state": "California", "area_name": "Rancheria Falls - Ice Climb", "id": "/area/111686047/rancheria-falls-ice-climb", "latitude": "37.25168", "longitude": "-119.13623", "elevation": "7,800"},
{"state": "California", "area_name": "Patterson Bluff", "id": "/area/114373638/patterson-bluff", "latitude": "36.91845", "longitude": "-119.08309", "elevation": "3,784"},
{"state": "California", "area_name": "Mammoth Pool", "id": "/area/115339494/mammoth-pool", "latitude": "37.37809", "longitude": "-119.28606", "elevation": "3,312"},
{"state": "California", "area_name": "Lewis Creek", "id": "/area/113640910/lewis-creek", "latitude": "37.41666", "longitude": "-119.62636", "elevation": "3,940"},
{"state": "California", "area_name": "Kerckhoff Dome", "id": "/area/115401679/kerckhoff-dome", "latitude": "37.20935", "longitude": "-119.23271", "elevation": "6,009"},
{"state": "California", "area_name": "Graveyard Peak", "id": "/area/113676964/graveyard-peak", "latitude": "37.44941", "longitude": "-118.9887", "elevation": "11,378"},
{"state": "California", "area_name": "Fresno Dome  Area", "id": "/area/106869361/fresno-dome-wamello-area", "latitude": "37.454", "longitude": "-119.53599", "elevation": "7,337"},
{"state": "California", "area_name": "Domeland Wilderness", "id": "/area/111777675/domeland-wilderness", "latitude": "35.9317", "longitude": "-118.23193", "elevation": "7,039"},
{"state": "California", "area_name": "Dogma Dome", "id": "/area/118244401/dogma-dome", "latitude": "37.15827", "longitude": "-119.2899", "elevation": "5,959"},
{"state": "California", "area_name": "Courtright Reservoir", "id": "/area/106032767/courtright-reservoir", "latitude": "37.0749", "longitude": "-118.9819", "elevation": "8,470"},
{"state": "California", "area_name": "The Balls", "id": "/area/113371898/the-balls", "latitude": "37.50169", "longitude": "-119.36146", "elevation": "7,173"},
{"state": "California", "area_name": "Tahquitz Rock", "id": "/area/105788031/tahquitz-rock", "latitude": "33.76046", "longitude": "-116.68275", "elevation": "7,659"},
{"state": "California", "area_name": "Tahquitz Ice & Surrounding Flows", "id": "/area/116166241/tahquitz-ice-surrounding-flows", "latitude": "33.76069", "longitude": "-116.67898", "elevation": "7,368"},
{"state": "California", "area_name": "Suicide Rock", "id": "/area/105788036/suicide-rock", "latitude": "33.771", "longitude": "-116.696", "elevation": "6,000"},
{"state": "California", "area_name": "The Others", "id": "/area/109014094/the-others", "latitude": "33.76306", "longitude": "-116.67715", "elevation": "7,547"},
{"state": "California", "area_name": "Yosemite Valley", "id": "/area/105833388/yosemite-valley", "latitude": "37.72349", "longitude": "-119.63452", "elevation": "3,953"},
{"state": "California", "area_name": "Tuolumne Meadows", "id": "/area/105833384/tuolumne-meadows", "latitude": "37.87401", "longitude": "-119.35782", "elevation": "8,593"},
{"state": "California", "area_name": "Southern Yosemite", "id": "/area/108164806/southern-yosemite", "latitude": "37.6454", "longitude": "-119.5688", "elevation": "8,160"},
{"state": "California", "area_name": "Hetch Hetchy", "id": "/area/107751068/hetch-hetchy", "latitude": "37.9463", "longitude": "-119.78799", "elevation": "3,825"},
{"state": "California", "area_name": "Glacier Point", "id": "/area/113689791/glacier-point", "latitude": "37.72934", "longitude": "-119.57366", "elevation": "7,197"}
]